     3.03           OBSERVATION DATA    M: Mixed            RINEX VERSION / TYPE
Geo++ RINEX Logger  Geo++               20210416 125942 UTC PGM / RUN BY / DATE
************************************************************COMMENT
This file was generated by the Geo++ RINEX Logger App       COMMENT
for Android devices (Version 2.1.6). If you encounter       COMMENT
any issues, please send an email to android@geopp.de        COMMENT
Filtering Mode: BEST                                        COMMENT
************************************************************COMMENT
Geo++                                                       MARKER NAME
GEODETIC                                                    MARKER TYPE
Geo++               Geo++                                   OBSERVER / AGENCY
unknown             HUAWEI              LIO-L29             REC # / TYPE / VERS
unknown             LIO-L29                                 ANT # / TYPE
  3657431.6088  1409705.9657  5014836.2719                  APPROX POSITION XYZ
        0.0000        0.0000        0.0000                  ANTENNA: DELTA H/E/N
G    8 C1C L1C D1C S1C C5Q L5Q D5Q S5Q                      SYS / # / OBS TYPES
R    4 C1C L1C D1C S1C                                      SYS / # / OBS TYPES
E   12 C1B L1B D1B S1B C1C L1C D1C S1C C5Q L5Q D5Q S5Q      SYS / # / OBS TYPES
C    4 C2I L2I D2I S2I                                      SYS / # / OBS TYPES
J    8 C1C L1C D1C S1C C5Q L5Q D5Q S5Q                      SYS / # / OBS TYPES
  2021     4    16    13     0    0.9987855     GPS         TIME OF FIRST OBS
 24 R01  1 R02 -4 R03  5 R04  6 R05  1 R06 -4 R07  5 R08  6 GLONASS SLOT / FRQ #
    R09 -2 R10 -5 R11  0 R12 -1 R13 -2 R14 -7 R15  0 R16 -1 GLONASS SLOT / FRQ #
    R17  4 R18 -3 R19  3 R20  2 R21  4 R22 -3 R23  3 R24  2 GLONASS SLOT / FRQ #
G L1C                                                       SYS / PHASE SHIFT
G L5Q -0.25000                                              SYS / PHASE SHIFT
R L1C                                                       SYS / PHASE SHIFT
E L1B                                                       SYS / PHASE SHIFT
E L1C +0.50000                                              SYS / PHASE SHIFT
E L5Q -0.25000                                              SYS / PHASE SHIFT
C L2I                                                       SYS / PHASE SHIFT
J L1C                                                       SYS / PHASE SHIFT
J L5Q -0.25000                                              SYS / PHASE SHIFT
 C1C    0.000 C1P    0.000 C2C    0.000 C2P    0.000        GLONASS COD/PHS/BIS
                                                            END OF HEADER
> 2021  4 16 13  0  0.9987855  0 36
C05  39354127.405   204927268.3791       -249.476          35.000  
C08  39212966.228   204192204.7731      -1214.544          29.000  
C13  37380265.081   194648849.0041       -586.142          26.000  
C14  25868538.683   134704258.8901        185.633          25.000  
C27  21390749.492   111387245.4431       -453.270          42.000  
C28  24225655.628   126149345.4971      -2965.272          30.000  
C30  23344948.129   121563144.2121       2285.707          42.000  
C36  23359739.289   121640094.4411       1231.940          43.000  
C37  26108339.673   135952975.5951      -3797.169          33.000  
C38  38507619.330   200519278.6821      -1025.763          29.000  
C42  26771785.778   139407712.9911       -929.942          32.000  
C46  22422410.588   116759375.4671      -2012.721          50.000  
E01                                                                                                                                  28651462.605   112434483.8051       2094.301          31.000  
E13                                                                                                                                  24716444.362    96992561.3931       1582.700          32.000  
E15                                                                                                                                  23233153.123    91171883.0121       -442.213          31.000  
E21                                                                                                                                  24503604.907    96157320.6811       1050.296          40.000  
E27                                                                                                                                  23682108.517    92933679.9131      -1148.487          39.000  
E30                                                                                                                                  26526877.525   104097164.8791      -2452.237          26.000  
G02  24848637.246   130580469.9151      -3323.541          29.000  
G04  25128125.960   132049192.6591       -705.744          38.000    25128135.254    98608199.4181       -526.930          40.000  
G12  24714191.122   129873950.7161      -3984.181          34.000  
G18  22486025.049   118164634.3211       3112.298          42.000  
G20  24808384.113   130368981.2701       3164.692          34.000  
G25  21454797.453   112745721.5101      -2954.277          40.000    21454805.847    84193266.0901      -2206.110          36.000  
G26  22626791.098   118904534.5521       2785.010          34.000    22626797.394    88792359.4221       2078.250          37.000  
G29  20284247.008   106594437.3101       -486.848          44.000  
G31  21870686.339   114931231.8061      -1410.755          44.000  
R01  23379241.988                        2076.227          24.000  
R08  23308774.871                        -493.404          36.000  
R09  24479451.528                        4202.538          27.000  
R14  23288693.273                       -4729.539          30.000  
R15  19671974.575                       -2337.281          41.000  
R16  20367729.914                        2234.116          29.000  
R17  19124469.006                       -1028.985          43.000  
R18  20561431.217                        2591.135          43.000  
R24  22203035.358                       -3983.377          28.000  
> 2021  4 16 13  0  1.9987853  0 37
C05  39354115.113   204927204.6541       -249.423          34.000  
C08  39213138.009   204193099.2801      -1214.303          30.000  
C13  37380317.245   194649120.9591       -585.967          26.000  
C14  25868446.947   134703759.4581        187.979          29.000  
C27  21390777.073   111387389.4771       -453.069          41.000  
C28  24226164.375   126151994.3761      -2965.143          36.000  
C30  23344448.674   121560546.6891       2285.329          42.000  
C36  23359441.595   121638550.8171       1230.415          42.000  
C37  26109008.210   135956456.7231      -3797.393          31.000  
C38  38507757.834   200519999.6851      -1026.917          32.000  
C42  26771908.393   139408351.9331       -930.700          32.000  
C46  22422737.062   116761075.2091      -2013.189          49.000  
E01                                                                                                                                  28650870.515   112432154.3951       2093.862          30.000  
E13                                                                                                                                  24715981.782    96990742.9731       1583.226          32.000  
E15                                                                                                                                  23233206.486    91172092.1411       -440.706          28.000  
E21                                                                                                                                  24503278.134    96156035.3571       1049.721          39.000  
E27                                                                                                                                  23682341.156    92934592.4271      -1148.483          39.000  
E30                                                                                                                                  26527443.533   104099385.6201      -2459.023          24.000  
G04  25128199.410   132049578.2741       -707.102          39.000    25128210.202    98608493.7051       -528.407          38.000  
G05  23104827.261   121416572.4791       1549.273          29.000  
G12  24714891.137   129877629.3861      -3983.732          27.000  
G18  22485372.401   118161206.4081       3113.105          42.000  
G20  24807721.272   130365501.3601       3164.971          35.000  
G25  21455298.106   112748352.0171      -2953.613          40.000    21455308.299    84195237.9501      -2204.818          33.000  
G26  22626202.006   118901434.3951       2784.406          36.000    22626208.302    88790046.3161       2077.919          36.000  
G29  20284280.285   106594611.9921       -486.389          44.000  
G31  21870894.395   114932325.5581      -1411.178          44.000  
R01  23378797.395                        2078.443          28.000  
R07  24590133.405                       -3088.004          17.000  
R08  23308809.947                        -497.972          30.000  
R09  24478604.315                        4202.615          28.000  
R14  23289519.201                       -4729.034          32.000  
R15  19672353.813                       -2337.893          40.000  
R16  20367252.644                        2229.734          28.000  
R17  19124601.814                       -1029.018          44.000  
R18  20560861.612                        2592.563          44.000  
R24  22203719.485                       -3985.309          35.000  
> 2021  4 16 13  0  2.9987850  0 38
C05  39354072.542   204926982.2801       -245.702          35.000  
C08  39213281.310   204193845.9581      -1213.440          29.000  
C13  37380339.729   194649237.5761       -586.375          28.000  
C14  25868323.133   134703104.6601        182.032          29.000  
C27  21390774.375   111387375.1401       -452.791          42.000  
C28  24226642.544   126154484.9631      -2964.708          36.000  
C30  23343919.541   121557793.5501       2284.916          43.000  
C36  23359114.222   121636852.8921       1228.576          41.000  
C37  26109647.667   135959786.3661      -3796.191          34.000  
C38  38507864.860   200520557.0661      -1025.798          32.000  
C42  26772001.329   139408835.9941       -934.374          32.000  
C46  22423034.156   116762622.6971      -2012.753          49.000  
E01                                                                                                                                  28650248.146   112429708.7651       2092.113          30.000  
E13                                                                                                                                  24715489.523    96988806.9091       1582.413          32.000  
E15                                                                                                                                  23233228.670    91172178.6561       -441.372          28.000  
E21                                                                                                                                  24502921.081    96154633.1641       1048.751          38.000  
E27                                                                                                                                  23682543.816    92935387.8121      -1148.983          37.000  
E30                                                                                                                                  26527982.260   104101499.8791      -2459.116          25.000  
G02  24849754.273   130586339.1581      -3325.184          26.000  
G04  25128243.779   132049811.6091       -710.202          37.000    25128255.471    98608670.8911       -530.383          38.000  
G05  23104444.126   121414550.2991       1549.898          34.000  
G12  24715558.175   129881134.7671      -3982.388          28.000  
G16  24973171.033   131234812.8611       3519.150          29.000  
G18  22484689.174   118157620.1501       3113.725          42.000  
G20  24807028.152   130361862.6801       3166.765          34.000  
G25  21455769.380   112750828.9901      -2951.881          39.000    21455780.172    84197089.7111      -2205.559          32.000  
G26  22625582.935   118898178.1321       2782.628          36.000    22625588.331    88787614.9811       2077.792          34.000  
G29  20284283.583   106594628.7361       -488.124          44.000  
G31  21871073.071   114933263.8721      -1412.285          44.000  
R01  23378321.025                        2075.786          28.000  
R08  23308816.542                        -499.590          29.000  
R09  24477727.122                        4199.115          27.000  
R14  23290315.150                       -4727.704          32.000  
R15  19672698.874                       -2337.651          42.000  
R16  20366746.895                        2226.992          28.000  
R17  19124699.246                       -1030.503          45.000  
R18  20560282.413                        2588.812          41.000  
R24  22204374.831                       -3985.765          36.000  
> 2021  4 16 13  0  3.9987850  0 35
C05  39354122.008   204927240.3121       -241.335          35.000  
C08  39213516.647   204195070.7281      -1213.855          27.000  
C13  37380455.149   194649838.3471       -587.030          29.000  
C14  25868292.254   134702923.7251        178.552          24.000  
C27  21390862.214   111387832.8291       -454.077          42.000  
C28  24227211.251   126157446.0961      -2963.985          38.000  
C30  23343481.244   121555508.4481       2285.049          42.000  
C36  23358877.386   121635624.4691       1228.338          40.000  
C37  26110377.062   135963584.6541      -3794.193          34.000  
C38  38508063.023   200521589.3631      -1025.052          33.000  
C42  26772182.704   139409780.4551       -934.943          25.000  
C46  22423420.589   116764634.6721      -2013.336          48.000  
E01                                                                                                                                  28649714.815   112427617.3391       2090.519          31.000  
E13                                                                                                                                  24715086.002    96987223.3281       1584.062          32.000  
E15                                                                                                                                  23233341.392    91172621.8261       -442.516          27.000  
E21                                                                                                                                  24502653.666    96153585.0071       1047.460          39.000  
E27                                                                                                                                  23682837.013    92936538.2511      -1149.025          37.000  
E30                                                                                                                                  26528609.726   104103962.2861      -2461.011          25.000  
G04  25128381.683   132050536.4601       -711.194          42.000    25128390.377    98609200.4881       -530.272          39.000  
G12  24716316.950   129885122.0571      -3979.969          35.000  
G16  24972502.196   131231296.2831       3514.944          26.000  
G18  22484097.383   118154505.9811       3113.536          42.000  
G20  24806424.969   130358694.5041       3168.916          33.000  
G25  21456331.791   112753783.8321      -2952.433          39.000    21456342.583    84199295.9901      -2205.348          31.000  
G26  22625053.202   118895396.5991       2780.816          38.000    22625058.598    88785537.5001       2076.821          35.000  
G29  20284375.919   106595114.0141       -488.036          45.000  
G31  21871342.285   114934678.5251      -1412.694          45.000  
R08  23308912.476                        -499.892          28.000  
R09  24476940.767                        4197.162          26.000  
R14  23291200.138                       -4726.425          30.000  
R15  19673136.271                       -2337.909          40.000  
R16  20366334.680                        2225.058          25.000  
R17  19124890.814                       -1030.930          44.000  
R18  20559794.650                        2582.944          44.000  
R24  22205123.413                       -3982.766          37.000  
> 2021  4 16 13  0  4.9987848  0 38
C05  39354110.017   204927177.6091       -243.896          37.000  
C08  39213690.827   204195977.9101      -1213.928          23.000  
C13  37380508.512   194650116.5331       -588.052          26.000  
C14  25868198.719   134702435.7401        172.712          24.000  
C27  21390889.495   111387974.5061       -454.192          42.000  
C30  23342983.589   121552911.4741       2284.633          42.000  
C36  23358580.891   121634083.0891       1228.746          40.000  
C37  26111046.199   135967069.0401      -3793.550          33.000  
C38  38508199.128   200522297.7511      -1025.820          25.000  
C42  26772304.719   139410415.9981       -936.116          26.000  
C46  22423747.363   116766336.9001      -2014.089          49.000  
E01                                                                                                                                  28649121.826   112425290.9051       2093.090          33.000  
E13                                                                                                                                  24714622.523    96985404.0911       1584.130          32.000  
E15                                                                                                                                  23233394.456    91172829.2581       -444.269          26.000  
E21                                                                                                                                  24502326.292    96152301.5121       1048.436          38.000  
E27                                                                                                                                  23683069.652    92937451.9931      -1148.240          38.000  
E30                                                                                                                                  26529176.933   104106188.1011      -2456.810          23.000  
G02  24850969.332   130592724.4961      -3328.034          25.000  
G04  25128456.931   132050931.9731       -710.122          41.000    25128465.625    98609495.4461       -529.936          39.000  
G05  23103796.275   121411134.5831       1549.095          38.000  
G12  24717013.967   129888784.5951      -3979.888          33.000  
G16  24971772.202   131227465.1071       3516.545          27.000  
G18  22483443.836   118151077.0681       3112.801          42.000  
G20  24805762.728   130355209.9761       3169.455          34.000  
G25  21456835.442   112756430.3791      -2953.179          40.000    21456844.735    84201267.0891      -2204.070          32.000  
G26  22624462.910   118892301.0011       2781.098          38.000    22624469.506    88783225.5061       2076.202          36.000  
G29  20284408.596   106595286.1131       -488.764          44.000  
G31  21871551.240   114935777.3561      -1413.732          44.000  
R01  23377483.405                        2062.708          26.000  
R07  24591733.697                       -3094.947          18.000  
R08  23308945.753                        -502.022          29.000  
R09  24476088.457                        4197.512          26.000  
R14  23292029.064                       -4726.340          31.000  
R15  19673515.209                       -2339.166          43.000  
R16  20365863.406                        2224.831          25.000  
R17  19125027.219                       -1031.817          44.000  
R18  20559263.118                        2592.053          43.000  
R24  22205811.137                       -3983.613          28.000  
> 2021  4 16 13  0  5.9987848  0 38
C05  39354157.384   204927423.8381       -247.032          37.000  
C08  39213923.166   204197188.2541      -1214.040          30.000  
C13  37380620.635   194650700.7231       -590.142          28.000  
C14  25868167.240   134702264.9781        171.442          20.000  
C27  21390976.135   111388425.1461       -454.761          42.000  
C28  24228291.703   126163072.3031      -2965.374          33.000  
C30  23342543.793   121550626.5561       2284.714          41.000  
C36  23358345.554   121632853.9041       1229.429          40.000  
C37  26111774.695   135970862.3521      -3793.479          34.000  
C38  38508396.392   200523325.0241      -1027.018          29.000  
C42  26772486.094   139411359.9181       -933.619          29.000  
C46  22424134.395   116768351.3541      -2014.936          49.000  
E01                                                                                                                                  28648586.996   112423197.3481       2094.342          29.000  
E13                                                                                                                                  24714218.702    96983820.2051       1583.930          32.000  
E15                                                                                                                                  23233506.578    91173269.9761       -442.880          27.000  
E21                                                                                                                                  24502058.578    96151252.4681       1049.479          39.000  
E27                                                                                                                                  23683362.549    92938600.7361      -1150.758          37.000  
E30                                                                                                                                  26529802.600   104108643.6331      -2455.427          22.000  
G02  24851604.892   130596064.7821      -3330.104          23.000  
G04  25128589.739   132051629.6771       -709.253          40.000    25128600.232    98610023.8051       -530.700          39.000  
G05  23103505.776   121409585.9441       1546.919          30.000  
G12  24717770.643   129892761.0181      -3981.190          39.000  
G16  24971101.866   131223948.1301       3518.727          27.000  
G18  22482851.746   118147964.4391       3111.842          42.000  
G20  24805159.545   130352041.1411       3167.807          35.000  
G25  21457397.853   112759386.7371      -2955.245          40.000    21457406.846    84203472.8731      -2205.704          32.000  
G26  22623932.877   118889518.5911       2782.543          36.000    22623940.672    88781149.5621       2076.264          34.000  
G29  20284501.532   106595774.0931       -489.463          44.000  
G31  21871819.854   114937188.8801      -1413.320          44.000  
R07  24592319.791                       -3095.966          18.000  
R08  23309038.688                        -501.230          31.000  
R09  24475299.403                        4196.134          22.000  
R14  23292914.951                       -4727.803          34.000  
R15  19673951.707                       -2340.941          42.000  
R16  20365447.294                        2225.068          25.000  
R17  19125221.485                       -1031.535          44.000  
R18  20558781.052                        2589.276          43.000  
R24  22206557.620                       -3986.780          29.000  
> 2021  4 16 13  0  6.9987845  0 38
C05  39354114.214   204927199.5641       -247.275          34.000  
C08  39214065.268   204197927.8031      -1213.227          29.000  
C13  37380644.019   194650821.8091       -591.251          29.000  
C14  25868045.825   134701623.0631        173.981          24.000  
C27  21390972.238   111388405.4451       -454.493          42.000  
C28  24228770.771   126165566.7631      -2966.367          36.000  
C30  23342015.259   121547873.9401       2283.340          41.000  
C36  23358019.679   121631156.1981       1229.180          40.000  
C37  26112414.152   135974192.5671      -3795.646          34.000  
C38  38508504.017   200523885.0101      -1027.212          30.000  
C42  26772577.230   139411834.4491       -933.892          32.000  
C46  22424431.489   116769899.1481      -2015.658          49.000  
E01                                                                                                                                  28647963.128   112420750.2271       2093.663          30.000  
E13                                                                                                                                  24713725.244    96981884.3781       1582.070          32.000  
E15                                                                                                                                  23233529.063    91173357.8291       -443.115          29.000  
E21                                                                                                                                  24501700.626    96149849.8361       1049.318          41.000  
E27                                                                                                                                  23683565.209    92939396.0711      -1150.452          38.000  
E30                                                                                                                                  26530341.027   104110756.5401      -2460.440          23.000  
G02  24852147.816   130598917.5521      -3331.565          26.000  
G04  25128636.207   132051873.6911       -708.425          39.000    25128644.901    98610199.3391       -528.914          40.000  
G05  23103120.542   121407567.1761       1545.179          28.000  
G12  24718437.382   129896264.4891      -3983.072          36.000  
G16  24970340.993   131219955.9391       3520.812          30.000  
G18  22482170.917   118144380.7311       3110.326          42.000  
G20  24804467.325   130348401.2161       3166.228          36.000  
G25  21457868.827   112761861.1201      -2956.264          39.000    21457878.420    84205323.0021      -2206.837          37.000  
G26  22623312.607   118886263.4701       2783.169          36.000    22623320.701    88778719.2981       2077.945          36.000  
G29  20284505.129   106595793.5441       -488.969          44.000  
G31  21871998.830   114938128.8521      -1413.406          43.000  
R01  23376614.007                        2065.013          25.000  
R08  23309043.185                        -499.649          32.000  
R09  24474425.508                        4196.880          23.000  
R14  23293712.698                       -4729.125          33.000  
R15  19674299.166                       -2341.698          42.000  
R16  20364939.746                        2226.830          25.000  
R17  19125322.515                       -1032.707          44.000  
R18  20558217.442                        2585.006          43.000  
R24  22207215.665                       -3984.772          30.000  
> 2021  4 16 13  0  7.9987845  0 37
C05  39354161.281   204927444.9031       -247.694          35.000  
C08  39214297.607   204199138.1791      -1213.963          29.000  
C13  37380756.741   194651408.9671       -590.337          29.000  
C14  25868013.447   134701447.4541        176.783          26.000  
C27  21391059.777   111388861.5181       -456.073          42.000  
C28  24229340.077   126168531.7051      -2965.825          37.000  
C30  23341576.963   121545589.6311       2283.925          40.000  
C36  23357784.942   121629926.5831       1229.916          41.000  
C37  26113143.547   135977990.2081      -3798.647          33.000  
C38  38508702.480   200524918.9281      -1025.694          30.000  
C42  26772757.106   139412771.8141       -936.401          30.000  
C46  22424819.121   116771917.1341      -2016.320          49.000  
E01                                                                                                                                  28647428.598   112418654.7001       2097.991          30.000  
E13                                                                                                                                  24713321.723    96980302.2981       1581.229          33.000  
E15                                                                                                                                  23233642.384    91173802.3171       -443.248          30.000  
E21                                                                                                                                  24501433.511    96148800.4001       1049.672          41.000  
E27                                                                                                                                  23683858.406    92940546.8081      -1151.054          39.000  
E30                                                                                                                                  26530969.992   104113224.4671      -2462.065          27.000  
G02  24852783.976   130602260.6871      -3329.738          26.000  
G04  25128771.414   132052584.1221       -708.270          39.000    25128779.508    98610728.1291       -528.825          42.000  
G05  23102824.947   121406022.5021       1543.430          30.000  
G12  24719194.358   129900243.0081      -3984.247          32.000  
G18  22481578.827   118141270.2131       3110.367          42.000  
G20  24803865.042   130345235.6351       3164.643          36.000  
G25  21458430.937   112764814.7901      -2957.744          39.000    21458441.130    84207531.7541      -2208.522          37.000  
G26  22622784.372   118883479.6161       2783.729          38.000    22622790.668    88776640.9721       2078.987          37.000  
G29  20284598.365   106596283.0631       -490.257          44.000  
G31  21872268.644   114939547.3591      -1414.078          44.000  
R07  24593378.358                       -3096.866          19.000  
R08  23309134.622                        -499.916          32.000  
R09  24473640.052                        4200.420          26.000  
R14  23294597.386                       -4730.639          34.000  
R15  19674739.861                       -2343.511          41.000  
R16  20364519.437                        2226.511          30.000  
R17  19125515.581                       -1032.940          45.000  
R18  20557717.988                        2588.519          43.000  
R24  22207965.146                       -3982.325          28.000  
> 2021  4 16 13  0  8.9987843  0 35
C05  39354148.090   204927375.5851       -248.159          35.000  
C08  39214469.987   204200035.0681      -1214.768          31.000  
C13  37380810.403   194651688.3201       -591.605          30.000  
C14  25867919.912   134700957.7831        177.903          28.000  
C27  21391088.857   111389012.6061       -456.691          43.000  
C28  24229852.722   126171200.9831      -2966.137          34.000  
C30  23341078.108   121542992.6231       2285.378          43.000  
C36  23357487.548   121628384.6821       1229.224          41.000  
C37  26113812.983   135981476.4471      -3799.468          34.000  
C38  38508842.483   200525648.0221      -1027.400          28.000  
C42  26772878.222   139413402.5141       -936.058          31.000  
C46  22425145.895   116773618.5361      -2016.419          49.000  
E01                                                                                                                                  28646834.109   112416322.9171       2093.893          32.000  
E13                                                                                                                                  24712858.544    96978485.5451       1581.881          33.000  
E15                                                                                                                                  23233696.047    91174013.4801       -444.258          31.000  
E21                                                                                                                                  24501105.837    96147515.4611       1050.007          41.000  
E27                                                                                                                                  23684091.645    92941461.9611      -1151.479          39.000  
E30                                                                                                                                  26531539.298   104115458.0071      -2465.037          27.000  
G04  25128844.863   132052970.5991       -708.567          39.000    25128854.156    98611020.7421       -529.358          41.000  
G16  24968937.364   131212595.9061       3523.523          29.000  
G18  22480927.078   118137844.8761       3110.469          42.000  
G20  24803201.901   130341756.4291       3163.526          35.000  
G25  21458935.488   112767466.4321      -2957.642          40.000    21458943.582    84209503.2291      -2208.772          36.000  
G26  22622195.280   118880380.5721       2784.179          34.000    22622200.976    88774325.9451       2078.718          35.000  
G29  20284630.443   106596452.4051       -490.815          43.000  
G31  21872477.599   114940645.0901      -1414.265          42.000  
R01  23375784.481                        2069.973          29.000  
R08  23309169.997                        -500.651          30.000  
R09  24472791.639                        4204.891          24.000  
R14  23295423.314                       -4732.232          31.000  
R15  19675117.600                       -2343.486          41.000  
R16  20364042.167                        2225.716          31.000  
R17  19125648.689                       -1034.361          44.000  
R18  20557190.953                        2583.015          43.000  
R24  22208651.071                       -3985.703          31.000  
> 2021  4 16 13  0  9.9987840  0 37
C05  39354105.520   204927153.8841       -249.440          35.000  
C08  39214611.789   204200773.7821      -1214.868          32.000  
C13  37380835.886   194651821.4821       -593.314          29.000  
C14  25867795.498   134700309.9641        179.189          26.000  
C27  21391085.859   111388997.4821       -455.655          41.000  
C28  24230329.392   126173683.6151      -2967.515          29.000  
C30  23340549.574   121540238.9471       2286.325          43.000  
C36  23357161.374   121626686.8401       1229.680          41.000  
C37  26114453.340   135984810.6131      -3798.784          33.000  
C38  38508950.708   200526211.1211      -1027.700          30.000  
C42  26772969.659   139413878.4451       -938.544          35.000  
C46  22425443.888   116775170.4731      -2016.093          48.000  
E01                                                                                                                                  28646210.241   112413875.3671       2094.873          29.000  
E13                                                                                                                                  24712365.385    96976550.9541       1581.538          34.000  
E15                                                                                                                                  23233719.731    91174105.7411       -443.961          31.000  
E21                                                                                                                                  24500749.084    96146113.0391       1049.151          42.000  
E27                                                                                                                                  23684295.204    92942261.3061      -1151.757          39.000  
E30                                                                                                                                  26532078.324   104117573.2771      -2464.742          28.000  
G04  25128890.731   132053211.2621       -710.086          40.000    25128899.425    98611197.7901       -530.933          39.000  
G05  23102084.160   121402150.2471       1540.835          31.000  
G12  24720561.112   129907424.5201      -3986.631          29.000  
G16  24968176.491   131208599.2351       3524.347          35.000  
G18  22480245.650   118134261.5041       3111.521          44.000  
G20  24802509.680   130338120.1851       3163.772          35.000  
G25  21459409.160   112769955.2881      -2957.865          39.000    21459416.955    84211360.8081      -2209.202          37.000  
G26  22621576.209   118877123.8191       2783.875          35.000    22621581.605    88771894.9371       2078.868          36.000  
G29  20284632.841   106596464.6941       -491.405          43.000  
G31  21872657.474   114941589.8781      -1412.734          43.000  
R01  23375306.612                        2070.953          25.000  
R07  24594376.068                       -3090.959          20.000  
R09  24471917.744                        4205.086          24.000  
R14  23296221.062                       -4732.358          30.000  
R15  19675467.457                       -2343.536          41.000  
R16  20363533.419                        2224.517          30.000  
R17  19125753.316                       -1034.277          43.000  
R18  20556597.064                        2589.931          42.000  
R24  22209313.912                       -3986.448          32.000  
> 2021  4 16 13  0 10.9987840  0 36
C05  39354156.185   204927418.2991       -251.384          37.000  
C08  39214846.826   204201997.5831      -1215.538          29.000  
C13  37380948.908   194652409.4361       -595.670          28.000  
C14  25867762.521   134700129.5801        180.729          28.000  
C27  21391171.900   111389444.7091       -457.421          41.000  
C28  24230898.998   126176649.5781      -2968.901          31.000  
C30  23340111.277   121537952.0141       2286.588          43.000  
C36  23356927.835   121625457.0521       1230.710          42.000  
C37  26115183.035   135988610.3491      -3799.994          31.000  
C42  26773150.434   139414819.4231       -942.237          25.000  
C46  22425829.721   116777180.0081      -2015.364          48.000  
E01                                                                                                                                  28645676.311   112411779.6541       2096.587          33.000  
E13                                                                                                                                  24711961.865    96974969.0201       1582.567          33.000  
E15                                                                                                                                  23233833.052    91174550.8271       -445.584          31.000  
E21                                                                                                                                  24500481.969    96145063.3861       1049.754          41.000  
E27                                                                                                                                  23684589.300    92943414.7641      -1151.035          39.000  
E30                                                                                                                                  26532705.790   104120036.3341      -2462.979          28.000  
G02  24854535.363   130611463.8991      -3329.084          28.000  
G04  25129025.638   132053920.1531       -709.975          40.000    25129034.332    98611727.9941       -530.111          38.000  
G05  23101790.064   121400610.2141       1539.638          32.000  
G12  24721318.987   129911407.2001      -3986.960          37.000  
G16  24967504.057   131205074.9111       3523.785          36.000  
G18  22479654.459   118131149.5701       3112.391          45.000  
G20  24801907.097   130334956.0351       3164.335          33.000  
G25  21459972.470   112772915.6331      -2958.793          39.000    21459979.665    84213568.8071      -2209.548          36.000  
G26  22621047.075   118874339.8621       2783.853          38.000    22621052.171    88769815.7611       2079.048          36.000  
G29  20284728.774   106596968.9781       -492.027          44.000  
G31  21872926.988   114943006.7691      -1413.473          43.000  
R01  23374922.578                        2070.820          26.000  
R07  24594954.068                       -3090.264          26.000  
R14  23297109.647                       -4731.697          33.000  
R15  19675904.555                       -2343.832          41.000  
R16  20363115.209                        2224.264          30.000  
R17  19125947.582                       -1035.893          44.000  
R18  20556116.197                        2589.223          42.000  
R24  22210060.995                       -3990.072          30.000  
> 2021  4 16 13  0 11.9987837  0 37
C05  39354113.014   204927192.9301       -249.871          37.000  
C08  39214990.127   204202743.7811      -1217.956          33.000  
C13  37380973.191   194652536.3681       -596.716          29.000  
C14  25867639.906   134699483.3071        174.773          25.000  
C27  21391171.600   111389443.8461       -457.977          41.000  
C28  24231379.565   126179151.3031      -2971.222          34.000  
C30  23339581.244   121535195.5231       2288.820          42.000  
C36  23356600.462   121623758.3941       1230.382          41.000  
C37  26115822.792   135991942.5181      -3797.536          29.000  
C38  38509257.396   200527808.6041      -1032.274          30.000  
C42  26773244.568   139415309.3731       -937.000          26.000  
C46  22426125.916   116778721.7811      -2014.688          47.000  
E01                                                                                                                                  28645052.743   112409330.0361       2097.027          35.000  
E13                                                                                                                                  24711468.107    96973033.0001       1583.112          34.000  
E15                                                                                                                                  23233856.736    91174643.5311       -445.921          32.000  
E21                                                                                                                                  24500124.617    96143660.7051       1049.662          41.000  
E27                                                                                                                                  23684792.559    92944212.2481      -1151.826          39.000  
E30                                                                                                                                  26533242.418   104122142.0281      -2463.161          29.000  
G04  25129070.007   132054153.2251       -709.444          41.000    25129079.300    98611903.8461       -530.084          34.000  
G05  23101407.528   121398597.9571       1538.883          30.000  
G12  24721989.923   129914933.5621      -3987.476          38.000  
G16  24966744.383   131201078.4631       3524.535          31.000  
G18  22478971.532   118127564.5391       3112.243          44.000  
G20  24801213.077   130331318.7841       3164.639          30.000  
G25  21460442.245   112775384.8661      -2958.952          39.000    21460453.937    84215430.0501      -2210.179          36.000  
G26  22620427.704   118871083.0891       2784.604          40.000    22620432.800    88767383.6911       2078.110          37.000  
G29  20284732.072   106596985.7561       -491.249          43.000  
G31  21873105.664   114943945.8511      -1412.820          44.000  
R01  23374448.306                        2066.688          27.000  
R07  24595442.729                       -3090.758          23.000  
R08  23309263.832                        -505.694          29.000  
R14  23297905.895                       -4731.507          34.000  
R15  19676254.712                       -2344.782          42.000  
R16  20362609.159                        2223.586          30.000  
R17  19126045.914                       -1036.744          44.000  
R18  20555543.293                        2588.108          41.000  
R24  22210715.741                       -3992.632          32.000  
> 2021  4 16 13  0 12.9987837  0 36
C05  39354160.082   204927438.2411       -250.549          36.000  
C08  39215225.464   204203968.9761      -1221.652          30.000  
C13  37381087.112   194653129.4471       -598.825          29.000  
C14  25867608.427   134699307.6881        174.908          22.000  
C27  21391260.339   111389905.2761       -458.792          42.000  
C28  24231949.770   126182120.6031      -2973.082          37.000  
C30  23339141.748   121532907.5211       2288.113          41.000  
C36  23356363.626   121622528.1691       1229.620          40.000  
C37  26116550.089   135995729.4751      -3797.707          29.000  
C38  38509455.858   200528841.5611      -1034.958          28.000  
C42  26773426.542   139416257.5111       -931.267          23.000  
C46  22426513.248   116780738.9871      -2015.576          47.000  
E01                                                                                                                                  28644518.213   112407232.9591       2096.869          36.000  
E13                                                                                                                                  24711064.586    96971449.8351       1583.408          35.000  
E15                                                                                                                                  23233970.057    91175088.5721       -447.260          31.000  
E21                                                                                                                                  24499856.602    96142611.1491       1049.013          40.000  
E27                                                                                                                                  23685085.756    92945363.5021      -1151.549          39.000  
E30                                                                                                                                  26533869.884   104124604.3961      -2464.387          30.000  
G04  25129208.811   132054883.5471       -712.861          38.000    25129214.507    98612434.1921       -530.781          36.000  
G12  24722748.098   129918917.4601      -3986.441          37.000  
G16  24966073.447   131197552.9841       3524.718          29.000  
G18  22478379.142   118124451.8981       3113.126          45.000  
G20  24800608.996   130328154.0661       3164.673          28.000  
G25  21461008.253   112778358.8421      -2960.576          41.000    21461016.947    84217639.4641      -2210.874          37.000  
G26  22619896.172   118868298.5201       2784.162          40.000    22619902.767    88765304.7391       2080.051          37.000  
G29  20284825.607   106597477.3351       -493.399          43.000  
G31  21873373.679   114945354.2541      -1412.199          45.000  
R07  24596019.830                       -3090.424          24.000  
R08  23309354.969                        -509.130          31.000  
R09  24469472.037                        4201.142          22.000  
R14  23298795.080                       -4731.097          35.000  
R15  19676691.510                       -2345.181          42.000  
R16  20362187.651                        2223.603          28.000  
R17  19126237.781                       -1037.529          43.000  
R18  20555046.238                        2589.213          41.000  
R24  22211461.026                       -3993.429          35.000  
> 2021  4 16 13  0 13.9987835  0 35
C05  39354147.491   204927372.3601       -250.414          36.000  
C08  39215400.543   204204881.3661      -1222.201          29.000  
C13  37381141.075   194653410.7011       -598.147          31.000  
C14  25867517.890   134698822.1001        175.612          22.000  
C27  21391288.819   111390053.9181       -459.142          42.000  
C28  24232460.617   126184781.0871      -2974.301          40.000  
C30  23338641.695   121530306.2231       2289.336          41.000  
C36  23356065.932   121620987.3271       1228.851          40.000  
C37  26117218.326   135999208.8371      -3795.500          29.000  
C38  38509594.962   200529566.5881      -1036.085          31.000  
C46  22426840.022   116782441.0151      -2015.110          47.000  
E01                                                                                                                                  28643924.324   112404901.2331       2096.093          36.000  
E13                                                                                                                                  24710601.107    96969631.5291       1583.301          34.000  
E15                                                                                                                                  23234024.619    91175302.3551       -447.366          32.000  
E21                                                                                                                                  24499529.229    96141326.4411       1049.519          41.000  
E27                                                                                                                                  23685319.594    92946281.0911      -1152.714          38.000  
E30                                                                                                                                  26534437.691   104126832.1481      -2462.500          29.000  
G04  25129284.658   132055281.2241       -713.823          34.000    25129290.354    98612732.4781       -531.748          41.000  
G05  23100761.176   121395208.8881       1534.387          35.000  
G12  24723447.214   129922591.1061      -3986.732          30.000  
G16  24965343.153   131193713.7251       3524.046          26.000  
G18  22477727.093   118121023.0951       3114.240          44.000  
G25  21461512.204   112781007.7931      -2960.868          41.000    21461520.299    84219614.4851      -2210.649          37.000  
G26  22619306.180   118865199.2031       2784.506          42.000    22619313.075    88762989.6811       2079.478          37.000  
G29  20284859.784   106597657.5511       -493.506          43.000  
G31  21873583.233   114946455.4761      -1412.386          45.000  
R07  24596536.672                       -3091.012          29.000  
R08  23309389.445                        -510.287          29.000  
R09  24468624.824                        4200.257          21.000  
R14  23299622.507                       -4730.415          33.000  
R15  19677068.649                       -2345.104          41.000  
R16  20361706.784                        2222.631          30.000  
R17  19126372.688                       -1039.171          43.000  
R18  20554494.020                        2591.792          40.000  
R24  22212149.049                       -3992.632          29.000  
> 2021  4 16 13  0 14.9987832  0 34
C05  39354107.019   204927162.0221       -249.906          35.000  
C08  39215548.041   204205648.7611      -1221.628          24.000  
C13  37381165.957   194653539.9881       -599.277          29.000  
C27  21391285.521   111390036.7431       -460.004          43.000  
C28  24232944.182   126187299.0221      -2976.552          37.000  
C30  23338112.261   121527547.4561       2290.314          41.000  
C36  23355740.657   121619289.9381       1229.478          40.000  
C37  26117857.484   136002537.7201      -3796.612          31.000  
C38  38509704.087   200530134.6931      -1034.925          30.000  
C42  26773636.397   139417350.6101       -922.832          20.000  
C46  22427137.716   116783991.1501      -2015.290          46.000  
E01                                                                                                                                  28643299.556   112402451.1661       2097.303          34.000  
E13                                                                                                                                  24710107.049    96967694.5571       1585.223          33.000  
E15                                                                                                                                  23234049.202    91175398.7851       -447.069          33.000  
E21                                                                                                                                  24499172.176    96139923.6411       1049.815          41.000  
E27                                                                                                                                  23685523.753    92947081.8961      -1152.720          38.000  
E30                                                                                                                                  26534974.619   104128938.9771      -2463.388          28.000  
G02  24856830.874   130623527.0941      -3325.763          24.000  
G04  25129330.227   132055521.2281       -713.396          29.000    25129337.422    98612917.5161       -532.648          41.000  
G12  24724116.350   129926107.4971      -3987.555          27.000  
G16  24964582.279   131189716.8131       3525.626          27.000  
G18  22477044.466   118117436.4341       3114.302          41.000  
G25  21461986.176   112783498.1601      -2961.530          42.000    21461993.371    84221471.2751      -2211.218          35.000  
G26  22618685.610   118861941.6821       2785.284          42.000    22618693.404    88760557.6741       2079.160          38.000  
G29  20284865.480   106597686.7871       -494.539          43.000  
G31  21873760.711   114947387.9281      -1412.222          45.000  
R07  24597031.330                       -3091.671          26.000  
R08  23309392.443                        -513.098          31.000  
R14  23300421.454                       -4730.313          35.000  
R15  19677418.507                       -2346.363          40.000  
R16  20361204.032                        2222.299          30.000  
R17  19126477.015                       -1039.280          43.000  
R18  20553917.819                        2598.892          41.000  
R24  22212807.393                       -3989.842          31.000  
> 2021  4 16 13  0 15.9987832  0 36
C05  39354154.086   204927407.0031       -250.270          35.000  
C08  39215785.477   204206885.6781      -1224.821          23.000  
C13  37381281.677   194654142.6511       -599.824          27.000  
C27  21391374.260   111390499.0031       -460.944          41.000  
C28  24233515.586   126190274.7191      -2975.668          36.000  
C30  23337673.365   121525257.4361       2290.238          42.000  
C36  23355504.721   121618060.0371       1228.851          39.000  
C37  26118586.279   136006332.5931      -3794.589          30.000  
C38  38509903.149   200531170.6311      -1037.977          31.000  
C42  26773816.273   139418286.3191       -919.162          21.000  
C46  22427525.047   116786007.5011      -2015.558          47.000  
E01                                                                                                                                  28642765.026   112400353.9771       2096.899          33.000  
E13                                                                                                                                  24709702.629    96966108.9051       1585.608          33.000  
E15                                                                                                                                  23234163.723    91175848.4491       -448.268          33.000  
E21                                                                                                                                  24498904.461    96138874.1811       1049.068          41.000  
E27                                                                                                                                  23685816.650    92948231.4061      -1151.822          38.000  
E30                                                                                                                                  26535602.984   104131405.2471      -2464.918          31.000  
G04  25129464.833   132056228.1931       -713.301          33.000    25129472.029    98613445.5521       -533.562          38.000  
G05  23100085.444   121391667.0711       1535.000          32.000  
G12  24724873.926   129930089.4281      -3988.707          32.000  
G16  24963911.344   131186190.5031       3526.882          34.000  
G18  22476451.776   118114322.3551       3114.594          40.000  
G20  24798651.950   130317870.2751       3165.402          35.000  
G25  21462548.887   112786455.1781      -2961.952          42.000    21462556.981    84223682.4581      -2211.073          36.000  
G26  22618156.476   118859156.5391       2784.450          41.000    22618163.371    88758478.4111       2079.201          38.000  
G29  20284959.315   106598179.7271       -495.201          43.000  
G31  21874029.624   114948800.8911      -1413.023          45.000  
R07  24597608.730                       -3091.762          29.000  
R08  23309485.379                        -513.686          26.000  
R09  24466956.478                        4197.688          21.000  
R14  23301309.139                       -4730.359          34.000  
R15  19677865.797                       -2347.414          38.000  
R16  20360788.519                        2221.564          30.000  
R17  19126673.080                       -1040.492          42.000  
R18  20553426.759                        2589.857          42.000  
R24  22213553.877                       -3992.689          27.000  
> 2021  4 16 13  0 16.9987832  0 35
C05  39354201.153   204927652.4071       -250.651          31.000  
C08  39216022.013   204208116.7751      -1224.592          26.000  
C13  37381398.296   194654750.0861       -600.510          23.000  
C14  25867322.126   134697834.4611        169.037          16.000  
C27  21391463.898   111390965.7671       -460.887          42.000  
C28  24234088.490   126193258.0501      -2976.583          38.000  
C30  23337233.270   121522967.4461       2289.763          42.000  
C36  23355271.182   121616831.1911       1228.301          42.000  
C37  26119315.374   136010129.1181      -3795.192          33.000  
C38  38510102.811   200532210.7941      -1038.849          31.000  
C42  26773997.048   139419227.6351       -924.507          25.000  
C46  22427911.480   116788020.0571      -2015.776          47.000  
E01                                                                                                                                  28642229.897   112398256.2811       2098.065          30.000  
E13                                                                                                                                  24709299.108    96964523.5551       1584.334          33.000  
E15                                                                                                                                  23234278.544    91176299.3091       -448.807          34.000  
E21                                                                                                                                  24498637.046    96137824.6971       1049.938          41.000  
E27                                                                                                                                  23686110.447    92949384.4851      -1153.069          37.000  
E30                                                                                                                                  26536231.949   104133873.5071      -2464.758          32.000  
G04  25129599.141   132056934.4921       -713.383          30.000    25129607.835    98613978.4131       -532.552          36.000  
G05  23099793.146   121390134.4431       1530.712          28.000  
G12  24725631.501   129934069.7341      -3989.978          36.000  
G16  24963238.310   131182663.3821       3527.264          37.000  
G18  22475857.588   118111208.0501       3115.043          41.000  
G25  21463113.396   112789421.5071      -2962.593          44.000    21463120.591    84225894.9201      -2211.989          36.000  
G26  22617626.143   118856371.9571       2784.717          42.000    22617633.638    88756399.0741       2079.550          38.000  
G29  20285052.850   106598671.7391       -495.756          43.000  
G31  21874298.238   114950212.4911      -1412.337          45.000  
R07  24598185.830                       -3091.899          29.000  
R09  24466172.521                        4202.285          26.000  
R14  23302198.024                       -4730.644          31.000  
R15  19678302.295                       -2346.566          35.000  
R16  20360371.208                        2221.096          30.000  
R17  19126867.045                       -1041.377          43.000  
R18  20552956.684                        2568.068          38.000  
R24  22214296.463                       -3998.789          29.000  
> 2021  4 16 13  0 17.9987832  0 36
C05  39354249.720   204927905.4251       -251.466          33.000  
C08  39216258.549   204209348.7551      -1226.942          24.000  
C13  37381515.515   194655360.8821       -598.196          25.000  
C27  21391550.838   111391418.7341       -460.769          43.000  
C28  24234661.993   126196244.0801      -2978.297          38.000  
C30  23336792.275   121520677.5771       2290.300          43.000  
C36  23355034.346   121615602.4711       1228.686          40.000  
C37  26120044.170   136013923.7391      -3796.008          34.000  
C38  38510302.772   200533252.1631      -1039.924          29.000  
C42  26774179.321   139420177.4361       -930.487          26.000  
C46  22428299.112   116790038.7281      -2015.431          48.000  
E01                                                                                                                                  28641695.667   112396159.1881       2096.606          29.000  
E13                                                                                                                                  24708894.388    96962938.8631       1584.779          32.000  
E15                                                                                                                                  23234393.664    91176750.4091       -448.688          34.000  
E21                                                                                                                                  24498369.931    96136775.2371       1048.871          41.000  
E27                                                                                                                                  23686404.244    92950536.8421      -1152.705          38.000  
E30                                                                                                                                  26536860.614   104136339.9841      -2465.405          31.000  
G04  25129733.747   132057642.0761       -713.993          31.000    25129743.640    98614510.7761       -533.963          33.000  
G05  23099501.448   121388604.6641       1529.035          29.000  
G12  24726392.974   129938071.1921      -3991.108          37.000  
G16  24962565.276   131179136.2641       3526.842          40.000  
G18  22475265.797   118108093.7081       3113.660          39.000  
G25  21463675.806   112792377.3291      -2963.071          43.000    21463684.500    84228107.1891      -2213.363          37.000  
G26  22617096.710   118853587.0531       2783.951          41.000    22617103.905    88754319.6621       2079.027          39.000  
G29  20285146.985   106599165.9851       -496.215          44.000  
G31  21874567.452   114951627.7071      -1412.906          41.000  
R01  23371984.912                        2047.679          22.000  
R07  24598762.031                       -3092.721          30.000  
R08  23309690.437                        -513.771          25.000  
R09  24465381.369                        4202.152          22.000  
R14  23303085.709                       -4731.108          31.000  
R15  19678737.294                       -2347.905          33.000  
R16  20359955.696                        2220.075          30.000  
R17  19127058.613                       -1042.302          42.000  
R18  20552477.316                        2591.571          38.000  
R24  22215046.244                       -4001.512          29.000  
> 2021  4 16 13  0 18.9987830  0 37
C05  39354238.927   204927849.2091       -252.397          33.000  
C13  37381572.176   194655655.3781       -599.902          24.000  
C14  25867201.309   134697187.7161        167.606          18.000  
C27  21391580.517   111391572.6711       -461.201          43.000  
C28  24235174.938   126198915.6031      -2978.879          32.000  
C30  23336292.821   121518075.3561       2290.053          41.000  
C36  23354737.851   121614062.1991       1227.076          40.000  
C37  26120713.306   136017408.6601      -3796.302          34.000  
C38  38510445.773   200533996.8651      -1041.745          25.000  
C42  26774303.435   139420823.5031       -941.888          27.000  
C46  22428625.885   116791740.2661      -2016.158          46.000  
E01                                                                                                                                  28641102.078   112393826.4441       2097.890          29.000  
E13                                                                                                                                  24708430.909    96961119.3431       1584.217          32.000  
E15                                                                                                                                  23234447.926    91176963.5331       -449.906          34.000  
E21                                                                                                                                  24498042.558    96135490.8411       1047.962          41.000  
E27                                                                                                                                  23686638.082    92951454.4831      -1152.168          38.000  
E30                                                                                                                                  26537429.320   104138572.0531      -2465.055          32.000  
G02  24859325.447   130636636.7581      -3356.948          21.000  
G04  25129808.396   132058033.6891       -715.094          28.000    25129820.088    98614810.6651       -534.426          35.000  
G05  23099152.489   121386761.6361       1527.177          28.000  
G12  24727094.189   129941756.2451      -3989.730          38.000  
G16  24961829.585   131175294.9151       3524.266          42.000  
G18  22474614.948   118104664.3661       3113.553          39.000  
G20  24796792.338   130308059.7521       3165.674          36.000  
G25  21464179.458   112795024.2001      -2962.505          42.000    21464188.452    84230085.0931      -2213.270          35.000  
G26  22616506.418   118850488.1931       2783.309          41.000    22616513.613    88752005.0261       2078.170          39.000  
G29  20285180.262   106599340.8381       -497.115          43.000  
G31  21874777.307   114952729.9851      -1414.155          45.000  
R01  23371539.420                        2045.083          30.000  
R07  24599281.572                       -3092.956          30.000  
R09  24464538.353                        4202.904          25.000  
R14  23303913.137                       -4736.855          29.000  
R15  19679112.634                       -2345.657          34.000  
R16  20359479.026                        2216.235          32.000  
R17  19127192.620                       -1042.881          43.000  
R18  20551927.796                        2585.957          43.000  
R24  22215735.466                       -4005.338          28.000  
> 2021  4 16 13  0 19.9987830  0 38
C05  39354287.793   204928103.4191       -252.045          32.000  
C13  37381688.795   194656262.8241       -603.672          25.000  
C14  25867169.231   134697015.5651        173.113          18.000  
C27  21391669.855   111392037.6501       -461.350          44.000  
C28  24235747.541   126201896.5141      -2978.535          29.000  
C30  23335854.524   121515785.3281       2290.178          42.000  
C36  23354502.814   121612835.2531       1226.853          41.000  
C37  26121442.102   136021203.1381      -3794.690          31.000  
C38  38510645.435   200535036.1991      -1043.672          28.000  
C42  26774488.707   139421788.3181       -947.944          28.000  
C46  22429013.517   116793758.2151      -2015.770          47.000  
E01                                                                                                                                  28640569.047   112391728.9071       2096.967          29.000  
E13                                                                                                                                  24708027.988    96959535.1131       1584.614          33.000  
E15                                                                                                                                  23234562.747    91177413.9331       -449.200          34.000  
E21                                                                                                                                  24497775.443    96134442.9791       1048.694          41.000  
E27                                                                                                                                  23686931.878    92952607.8241      -1152.494          37.000  
E30                                                                                                                                  26538057.085   104141035.7991      -2463.337          32.000  
G02  24859966.104   130640002.7441      -3355.447          21.000  
G04  25129944.501   132058749.0421       -717.757          31.000    25129956.193    98615344.7391       -535.882          33.000  
G05  23098860.192   121385232.7081       1530.280          26.000  
G12  24727852.064   129945739.5711      -3988.951          36.000  
G16  24961159.249   131171770.4371       3524.910          37.000  
G18  22474021.958   118101550.3271       3115.600          38.000  
G20  24796190.055   130304893.8781       3166.143          34.000  
G25  21464743.967   112797990.7101      -2962.582          42.000    21464752.361    84232297.6071      -2212.171          37.000  
G26  22615977.585   118847705.1551       2782.664          41.000    22615984.480    88749926.8131       2077.914          38.000  
G29  20285275.296   106599840.9171       -496.754          43.000  
G31  21875045.921   114954141.8181      -1414.462          44.000  
R01  23371158.384                        2051.671          24.000  
R07  24599864.068                       -3094.817          33.000  
R08  23309822.346                        -510.573          31.000  
R09  24463753.196                        4202.542          31.000  
R14  23304800.223                       -4732.047          30.000  
R15  19679547.932                       -2349.607          38.000  
R16  20359059.916                        2222.193          28.000  
R17  19127390.483                       -1042.752          44.000  
R18  20551444.531                        2587.782          43.000  
R24  22216484.648                       -4004.289          25.000  
> 2021  4 16 13  0 20.9987827  0 35
C05  39354246.422   204927887.9501       -251.876          33.000  
C13  37381714.578   194656397.4581       -603.914          26.000  
C14  25867047.216   134696376.7961        169.453          26.000  
C27  21391668.956   111392033.0341       -462.136          43.000  
C28  24236229.907   126204408.7431      -2977.605          33.000  
C30  23335323.891   121513026.8211       2289.716          42.000  
C36  23354177.240   121611140.6781       1226.687          40.000  
C37  26122080.660   136024528.6341      -3794.056          29.000  
C38  38510756.658   200535614.9551      -1041.823          24.000  
C46  22429310.312   116795304.0181      -2016.884          46.000  
E01                                                                                                                                  28639945.778   112389280.5581       2095.515          29.000  
E13                                                                                                                                  24707534.530    96957597.1711       1585.373          33.000  
E15                                                                                                                                  23234586.730    91177508.4761       -450.233          33.000  
E21                                                                                                                                  24497418.090    96133042.0901       1047.855          40.000  
E27                                                                                                                                  23687135.737    92953408.2131      -1153.541          37.000  
E30                                                                                                                                  26538594.613   104143144.6571      -2464.263          33.000  
G02  24860513.824   130642881.2581      -3351.468          26.000  
G04  25129990.370   132058990.4721       -718.169          34.000    25130002.661    98615527.5671       -535.862          37.000  
G12  24728521.801   129949258.7131      -3989.014          37.000  
G16  24960398.376   131167772.8181       3525.129          35.000  
G18  22473338.432   118097962.4761       3113.812          39.000  
G20  24795497.834   130301254.4411       3166.958          38.000  
G25  21465217.939   112800480.7411      -2963.587          43.000    21465226.333    84234157.9231      -2212.359          36.000  
G26  22615358.213   118844449.8601       2782.455          42.000    22615364.809    88747495.7741       2077.980          39.000  
G29  20285279.193   106599861.1691       -496.781          43.000  
G31  21875224.897   114955081.8851      -1415.149          44.000  
R07  24600351.231                       -3096.691          36.000  
R08  23309825.344                        -518.796          39.000  
R09  24462877.802                        4201.824          30.000  
R14  23305596.771                       -4730.087          34.000  
R15  19679895.992                       -2350.592          35.000  
R16  20358556.864                        2220.316          30.000  
R17  19127496.610                       -1043.617          43.000  
R18  20550873.426                        2593.216          42.000  
R24  22217149.587                       -4007.766          28.000  
> 2021  4 16 13  0 21.9987825  0 36
C05  39354234.730   204927827.3401       -251.475          33.000  
C08  39217002.934   204213225.3861      -1215.340          23.000  
C13  37381772.138   194656696.5521       -602.072          25.000  
C27  21391696.537   111392177.2051       -462.408          42.000  
C28  24236742.852   126207079.6891      -2977.535          33.000  
C30  23334823.838   121510425.0971       2288.325          42.000  
C36  23353879.546   121609602.3441       1225.325          39.000  
C37  26122750.096   136028013.8591      -3792.931          27.000  
C38  38510894.562   200536333.9711      -1039.628          29.000  
C42  26774705.157   139422915.8371       -953.559          30.000  
C46  22429638.584   116797013.8111      -2017.531          47.000  
E01                                                                                                                                  28639351.290   112386950.2331       2095.035          30.000  
E13                                                                                                                                  24707070.451    96955776.3251       1585.988          33.000  
E15                                                                                                                                  23234640.993    91177721.6051       -450.964          33.000  
E21                                                                                                                                  24497091.017    96131758.6001       1048.229          40.000  
E27                                                                                                                                  23687370.175    92954327.4541      -1153.803          37.000  
E30                                                                                                                                  26539163.020   104145375.0041      -2464.356          33.000  
G04  25130065.917   132059386.7361       -718.738          41.000    25130079.708    98615830.2791       -536.703          41.000  
G05  23098130.797   121381380.5251       1532.646          23.000  
G12  24729221.816   129952937.6101      -3989.549          38.000  
G16  24959667.182   131163932.4891       3525.028          41.000  
G18  22472689.081   118094534.3291       3112.593          41.000  
G20  24794835.593   130297772.3721       3167.163          38.000  
G25  21465720.391   112803121.2751      -2963.543          43.000    21465730.584    84236136.8961      -2211.197          36.000  
G26  22614768.821   118841352.3381       2782.219          43.000    22614775.417    88745182.8311       2076.747          39.000  
G29  20285315.169   106600050.0661       -498.709          42.000  
G31  21875433.852   114956180.3381      -1416.299          45.000  
R07  24600872.870                       -3097.704          35.000  
R08  23309867.315                        -522.006          33.000  
R09  24462032.687                        4200.534          28.000  
R14  23306424.798                       -4731.246          30.000  
R15  19680275.829                       -2350.612          36.000  
R16  20358080.494                        2218.142          31.000  
R17  19127632.116                       -1045.024          42.000  
R18  20550333.500                        2591.046          43.000  
R24  22217837.911                       -4010.773          26.000  
> 2021  4 16 13  0 22.9987825  0 37
C05  39354283.596   204928081.7051       -251.606          34.000  
C13  37381885.759   194657288.0351       -602.860          26.000  
C14  25866923.701   134695733.7721        163.080          27.000  
C27  21391784.076   111392632.8861       -462.732          42.000  
C28  24237313.657   126210052.4251      -2978.004          35.000  
C30  23334385.541   121508136.8521       2288.218          43.000  
C36  23353644.508   121608377.3811       1223.435          40.000  
C37  26123479.491   136031812.9981      -3793.209          31.000  
C38  38511093.924   200537371.3361      -1039.059          28.000  
C42  26774888.331   139423868.8971       -955.126          29.000  
C46  22430025.916   116799030.4331      -2017.580          46.000  
E01                                                                                                                                  28638816.760   112384854.7321       2095.351          36.000  
E13                                                                                                                                  24706666.631    96954191.7501       1583.706          32.000  
E15                                                                                                                                  23234755.214    91178169.8191       -450.355          34.000  
E21                                                                                                                                  24496824.501    96130711.3991       1046.111          41.000  
E27                                                                                                                                  23687664.271    92955482.2161      -1153.798          37.000  
E30                                                                                                                                  26539790.485   104147837.5991      -2463.186          33.000  
G02  24861727.084   130649257.1221      -3343.952          28.000  
G04  25130202.323   132060104.2291       -720.269          39.000    25130216.713    98616367.2151       -537.508          39.000  
G05  23097842.996   121379846.3391       1535.583          23.000  
G12  24729981.790   129956931.2601      -3988.082          37.000  
G16  24958998.045   131160407.6811       3524.050          40.000  
G18  22472095.492   118091420.5141       3114.088          41.000  
G20  24794230.911   130294604.1901       3168.400          37.000  
G25  21466286.399   112806095.8501      -2963.011          42.000    21466294.494    84238349.6601      -2213.002          35.000  
G26  22614239.388   118838570.8301       2780.353          42.000    22614245.983    88743106.5021       2076.702          38.000  
G29  20285410.802   106600552.6891       -498.389          41.000  
G31  21875703.366   114957596.3641      -1417.695          45.000  
R07  24601453.268                       -3099.400          33.000  
R08  23309968.345                        -523.346          33.000  
R09  24461247.231                        4199.061          25.000  
R14  23307313.383                       -4730.463          31.000  
R15  19680714.125                       -2351.360          35.000  
R16  20357667.680                        2217.888          29.000  
R17  19127827.880                       -1045.752          42.000  
R18  20549849.036                        2588.616          42.000  
R24  22218589.491                       -4000.630          30.000  
> 2021  4 16 13  0 23.9987822  0 38
C05  39354241.925   204927864.6831       -251.135          34.000  
C08  39217392.664   204215254.9631      -1217.351          23.000  
C13  37381911.841   194657424.6721       -600.689          28.000  
C14  25866808.281   134695106.0731        156.964          26.000  
C27  21391784.376   111392634.6411       -463.244          42.000  
C28  24237794.224   126212554.9551      -2977.891          37.000  
C30  23333855.508   121505380.1311       2288.860          43.000  
C36  23353320.433   121606685.3991       1224.213          39.000  
C37  26124120.148   136035148.6731      -3793.181          35.000  
C38  38511203.948   200537944.8791      -1038.566          30.000  
C42  26774982.166   139424357.8431       -952.746          25.000  
C46  22430323.011   116800578.0491      -2018.035          47.000  
E01                                                                                                                                  28638192.592   112382406.1061       2096.086          37.000  
E13                                                                                                                                  24706172.872    96952255.1081       1583.501          33.000  
E15                                                                                                                                  23234779.797    91178266.4521       -450.564          34.000  
E21                                                                                                                                  24496468.048    96129312.1851       1046.060          40.000  
E27                                                                                                                                  23687868.130    92956282.1091      -1153.806          38.000  
E30                                                                                                                                  26540328.613   104149950.0191      -2463.692          32.000  
G02  24862274.206   130652132.5711      -3343.915          26.000  
G04  25130254.487   132060378.2761       -720.269          40.000    25130264.080    98616553.0041       -538.342          41.000  
G05  23097461.660   121377838.9771       1532.598          25.000  
G12  24730648.828   129960436.6251      -3987.259          37.000  
G16  24958241.069   131156411.5591       3523.571          38.000  
G18  22471411.366   118087834.3201       3113.180          40.000  
G20  24793536.592   130290963.6531       3168.672          36.000  
G25  21466759.771   112808583.2301      -2962.970          42.000    21466767.866    84240207.2261      -2211.926          36.000  
G26  22613620.316   118835317.6501       2780.073          42.000    22613627.212    88740676.5781       2076.895          38.000  
G29  20285414.999   106600574.9361       -499.001          41.000  
G31  21875883.241   114958542.1501      -1417.718          44.000  
R07  24601945.228                       -3098.339          31.000  
R08  23309976.739                        -523.931          30.000  
R09  24460370.938                        4199.791          31.000  
R14  23308111.130                       -4729.086          33.000  
R15  19681064.283                       -2353.237          37.000  
R16  20357163.729                        2214.456          32.000  
R17  19127931.608                       -1045.011          41.000  
R18  20549275.233                        2592.373          41.000  
R24  22219255.629                       -4000.858          31.000  
> 2021  4 16 13  0 24.9987822  0 35
C05  39354288.693   204928108.5201       -250.832          33.000  
C08  39217628.900   204216484.6761      -1218.305          21.000  
C13  37382028.460   194658031.5481       -598.798          26.000  
C27  21391873.714   111393099.5101       -463.191          42.000  
C28  24238365.029   126215526.4451      -2977.096          40.000  
C30  23333415.712   121503091.6501       2287.916          43.000  
C36  23353087.794   121605461.7801       1222.584          40.000  
C37  26124848.644   136038942.1271      -3792.999          34.000  
C38  38511403.610   200538983.8741      -1039.847          30.000  
C42  26775164.739   139425308.8611       -950.785          26.000  
C46  22430710.642   116802596.0241      -2018.527          47.000  
E01                                                                                                                                  28637658.661   112380310.7891       2094.563          33.000  
E13                                                                                                                                  24705769.052    96950671.3061       1583.623          33.000  
E15                                                                                                                                  23234894.317    91178714.8951       -450.359          33.000  
E21                                                                                                                                  24496201.233    96128265.9621       1046.266          41.000  
E27                                                                                                                                  23688162.526    92957437.1871      -1154.350          37.000  
E30                                                                                                                                  26540956.378   104152413.5121      -2463.190          32.000  
G02  24862911.864   130655482.8211      -3346.831          27.000  
G04  25130390.593   132061093.6711       -721.513          36.000    25130401.385    98617091.7471       -539.484          40.000  
G05  23097170.262   121376305.9491       1532.579          29.000  
G12  24731410.301   129964437.5951      -3986.903          37.000  
G16  24957571.033   131152888.0571       3522.796          42.000  
G18  22470818.676   118084721.0861       3112.980          41.000  
G20  24792933.110   130287794.5081       3168.437          37.000  
G25  21467323.381   112811545.3611      -2963.134          42.000    21467331.775    84242420.1791      -2213.335          36.000  
G26  22613090.283   118832537.8711       2779.583          42.000    22613097.778    88738600.0601       2075.838          39.000  
G29  20285509.734   106601073.0481       -499.401          43.000  
G31  21876153.354   114959961.5041      -1418.929          44.000  
R01  23369003.176                        2041.216          29.000  
R09  24459577.987                        4197.444          27.000  
R14  23308998.516                       -4729.205          30.000  
R15  19681507.076                       -2354.494          35.000  
R16  20356749.416                        2214.282          30.000  
R17  19128128.872                       -1047.509          42.000  
R18  20548779.976                        2583.014          42.000  
> 2021  4 16 13  0 25.9987820  0 35
C05  39354276.102   204928042.3711       -249.854          33.000  
C13  37382083.922   194658320.4011       -591.648          23.000  
C27  21391902.794   111393250.6291       -464.067          43.000  
C28  24238876.175   126218188.1281      -2979.359          35.000  
C30  23332917.158   121500491.4531       2287.543          43.000  
C36  23352793.697   121603928.4921       1219.809          39.000  
C37  26125516.881   136042421.7041      -3792.210          32.000  
C38  38511541.814   200539703.6961      -1040.391          28.000  
C42  26775288.553   139425952.8391       -944.626          30.000  
C46  22431038.016   116804300.4741      -2019.087          47.000  
E01                                                                                                                                  28637065.972   112377982.3431       2091.741          34.000  
E13                                                                                                                                  24705305.273    96948851.7571       1584.374          33.000  
E15                                                                                                                                  23234948.580    91178928.7821       -449.993          33.000  
E21                                                                                                                                  24495875.358    96126985.2641       1044.685          41.000  
E27                                                                                                                                  23688396.664    92958356.1161      -1154.828          38.000  
E30                                                                                                                                  26541523.885   104154639.9381      -2461.030          33.000  
G04  25130466.440   132061492.0011       -723.415          35.000    25130479.631    98617399.5851       -541.037          39.000  
G05  23096818.305   121374459.1901       1530.714          31.000  
G12  24732107.918   129968103.4941      -3987.138          34.000  
G16  24956838.041   131149051.2631       3520.669          38.000  
G18  22470167.527   118081292.1321       3115.050          41.000  
G20  24792269.969   130284310.0691       3170.637          38.000  
G25  21467827.632   112814195.1551      -2962.779          44.000    21467835.427    84244397.0841      -2212.676          36.000  
G26  22612503.590   118829444.2681       2777.598          42.000    22612508.986    88736289.6201       2074.032          38.000  
G29  20285545.109   106601258.4331       -499.374          43.000  
G31  21876363.209   114961064.5391      -1419.570          45.000  
R01  23368555.885                        2039.237          32.000  
R07  24603040.370                       -3103.199          27.000  
R09  24458731.373                        4197.273          32.000  
R14  23309828.941                       -4726.643          30.000  
R15  19681889.611                       -2353.104          34.000  
R16  20356273.645                        2212.481          32.000  
R17  19128262.280                       -1048.098          43.000  
R18  20548234.054                        2587.512          43.000  
R24  22220689.837                       -3999.312          29.000  
> 2021  4 16 13  0 26.9987820  0 37
C05  39354324.368   204928293.3281       -248.452          33.000  
C08  39218037.218   204218611.1621      -1220.619          23.000  
C13  37382196.644   194658907.2001       -592.217          24.000  
C27  21391991.233   111393711.2361       -463.824          42.000  
C28  24239446.980   126221161.1501      -2977.202          41.000  
C30  23332477.962   121498204.1691       2287.682          43.000  
C36  23352557.161   121602708.1861       1219.794          39.000  
C37  26126244.178   136046208.5471      -3791.448          32.000  
C38  38511740.277   200540737.0591      -1039.166          29.000  
C42  26775471.427   139426905.4271       -946.008          27.000  
C46  22431425.947   116806320.4521      -2019.132          47.000  
E01                                                                                                                                  28636532.641   112375890.5211       2092.014          34.000  
E13                                                                                                                                  24704902.652    96947267.7221       1584.115          34.000  
E15                                                                                                                                  23235063.101    91179377.5951       -450.258          34.000  
E21                                                                                                                                  24495608.843    96125940.4811       1045.111          40.000  
E27                                                                                                                                  23688690.761    92959510.2981      -1154.459          38.000  
E30                                                                                                                                  26542151.051   104157100.6951      -2461.647          33.000  
G02  24864121.527   130661840.0111      -3339.016          26.000  
G04  25130603.445   132062211.9761       -724.770          39.000    25130617.236    98617939.1511       -541.735          42.000  
G05  23096526.607   121372930.3181       1527.688          30.000  
G12  24732865.494   129972085.1181      -3986.548          37.000  
G16  24956172.501   131145531.3131       3519.697          40.000  
G18  22469574.537   118078177.4881       3114.140          39.000  
G20  24791667.985   130281139.1761       3170.990          36.000  
G25  21468391.242   112817156.6131      -2962.750          43.000    21468400.536    84246613.8311      -2210.778          36.000  
G26  22611973.856   118826666.6251       2777.598          43.000    22611980.452    88734215.1321       2074.530          38.000  
G29  20285638.944   106601752.1081       -499.656          43.000  
G31  21876633.921   114962486.7751      -1420.429          45.000  
R07  24603618.669                       -3104.223          32.000  
R08  23310226.466                        -522.619          25.000  
R09  24457948.015                        4196.281          29.000  
R14  23310716.327                       -4726.337          30.000  
R15  19682332.405                       -2354.252          34.000  
R16  20355856.634                        2212.568          30.000  
R17  19128457.744                       -1048.258          42.000  
R18  20547750.488                        2586.557          42.000  
R24  22221435.121                       -3997.962          29.000  
> 2021  4 16 13  0 27.9987817  0 36
C05  39354282.097   204928073.4791       -246.960          32.000  
C08  39218183.217   204219371.3681      -1219.738          20.000  
C13  37382220.327   194659030.6801       -593.401          24.000  
C27  21391990.933   111393710.1141       -464.654          43.000  
C28  24239928.747   126223669.1981      -2976.162          33.000  
C30  23331948.528   121495448.6731       2286.553          43.000  
C36  23352231.287   121601018.7451       1220.162          38.000  
C37  26126883.335   136049537.3101      -3789.941          32.000  
C38  38511850.601   200541311.7921      -1038.290          27.000  
C42  26775564.662   139427390.9991       -946.335          23.000  
C46  22431723.041   116807868.2291      -2018.908          46.000  
E01                                                                                                                                  28635909.073   112373444.4151       2093.572          36.000  
E13                                                                                                                                  24704409.493    96945330.7491       1583.906          33.000  
E15                                                                                                                                  23235088.583    91179477.9891       -450.205          33.000  
E21                                                                                                                                  24495252.989    96124542.7821       1044.630          41.000  
E27                                                                                                                                  23688894.919    92960311.0241      -1154.300          37.000  
E30                                                                                                                                  26542688.579   104159210.3741      -2462.084          33.000  
G02  24864668.648   130664715.2751      -3328.286          23.000  
G04  25130650.812   132062460.6031       -727.081          36.000    25130664.903    98618126.2471       -541.323          43.000  
G05  23096144.672   121370930.0601       1527.174          30.000  
G12  24733535.230   129975604.8341      -3986.036          37.000  
G16  24955411.328   131141537.5661       3521.696          39.000  
G18  22468890.711   118074591.0881       3113.834          40.000  
G20  24790975.165   130277497.3111       3168.169          35.000  
G25  21468864.315   112819642.9971      -2963.346          43.000    21468874.208    84248473.1021      -2212.598          37.000  
G26  22611354.485   118823415.5201       2778.448          41.000    22611362.579    88731787.9591       2074.388          38.000  
G29  20285644.341   106601779.6231       -500.905          42.000  
G31  21876815.296   114963439.9171      -1420.895          45.000  
R08  23310234.560                        -524.199          28.000  
R09  24457071.722                        4196.331          26.000  
R14  23311514.974                       -4726.530          32.000  
R15  19682682.263                       -2354.319          35.000  
R16  20355354.182                        2211.621          30.000  
R17  19128564.171                       -1049.498          43.000  
R18  20547173.987                        2586.054          43.000  
R24  22222093.465                       -3989.445          28.000  
> 2021  4 16 13  0 28.9987814  0 35
C05  39354239.827   204927853.5951       -245.811          33.000  
C08  39218327.717   204220123.6471      -1217.974          22.000  
C13  37382246.110   194659164.7371       -591.596          23.000  
C27  21391990.633   111393708.8031       -465.094          42.000  
C28  24240410.213   126226177.0021      -2976.229          34.000  
C30  23331420.594   121492692.8531       2287.459          40.000  
C36  23351906.012   121599330.9851       1218.525          38.000  
C37  26127522.792   136052867.1521      -3788.748          23.000  
C38  38511958.526   200541873.6611      -1038.625          29.000  
C42  26775657.298   139427873.4741       -948.699          26.000  
C46  22432021.934   116809424.2281      -2019.742          46.000  
E01                                                                                                                                  28635285.205   112370998.6241       2092.553          36.000  
E13                                                                                                                                  24703915.135    96943394.4081       1583.539          33.000  
E15                                                                                                                                  23235114.065    91179578.0021       -452.250          35.000  
E21                                                                                                                                  24494896.836    96123145.7321       1043.499          41.000  
E27                                                                                                                                  23689099.078    92961112.5221      -1153.953          37.000  
E30                                                                                                                                  26543226.707   104161322.3961      -2461.614          34.000  
G02  24865212.771   130667574.1791      -3317.647          21.000  
G04  25130701.477   132062726.8091       -728.946          31.000    25130714.069    98618319.3141       -543.031          40.000  
G05  23095763.036   121368929.7571       1528.945          31.000  
G12  24734204.067   129979118.8351      -3985.206          36.000  
G16  24954650.755   131137544.8191       3517.884          40.000  
G18  22468210.182   118071004.3341       3114.085          40.000  
G20  24790282.045   130273853.6331       3171.853          35.000  
G25  21469339.785   112822141.4701      -2962.579          43.000    21469348.479    84250334.2771      -2213.212          37.000  
G26  22610737.812   118820165.4761       2775.880          41.000    22610744.407    88729361.2201       2073.047          39.000  
G29  20285650.636   106601813.3861       -500.922          43.000  
G31  21876996.071   114964389.6691      -1422.273          45.000  
R07  24604594.793                       -3107.030          30.000  
R09  24456197.527                        4194.053          28.000  
R15  19683036.018                       -2353.064          35.000  
R16  20354850.830                        2210.287          30.000  
R17  19128669.398                       -1049.930          42.000  
R18  20546610.078                        2579.231          42.000  
R24  22222752.708                       -3980.084          26.000  
> 2021  4 16 13  0 29.9987814  0 36
C05  39354286.295   204928095.7641       -244.458          34.000  
C13  37382359.731   194659756.6521       -593.112          24.000  
C14  25866392.769   134692880.4931        164.181          17.000  
C27  21392079.971   111394174.0841       -464.842          43.000  
C28  24240981.917   126229153.5451      -2976.430          31.000  
C30  23330981.398   121490406.9761       2285.377          37.000  
C36  23351673.973   121598113.4751       1217.299          40.000  
C37  26128252.487   136056666.7421      -3780.332          21.000  
C38  38512156.689   200542906.0951      -1037.849          26.000  
C46  22432410.166   116811446.1801      -2020.285          48.000  
E01                                                                                                                                  28634752.473   112368906.7291       2091.444          37.000  
E13                                                                                                                                  24703511.315    96941810.7031       1583.434          33.000  
E15                                                                                                                                  23235229.485    91180030.3571       -451.722          34.000  
E21                                                                                                                                  24494630.620    96122102.4221       1043.079          41.000  
E27                                                                                                                                  23689392.875    92962265.7531      -1155.240          38.000  
E30                                                                                                                                  26543854.172   104163784.7561      -2460.902          34.000  
G02  24865846.533   130670904.9051      -3318.386          23.000  
G04  25130841.480   132063463.2921       -731.185          29.000    25130852.273    98618861.1411       -544.612          39.000  
G05  23095473.736   121367398.8381       1537.335          23.000  
G12  24734960.143   129983092.6641      -3983.756          38.000  
G16  24953978.620   131134026.6271       3517.738          36.000  
G18  22467617.192   118067890.5741       3113.575          40.000  
G20  24789679.162   130270681.7661       3172.555          37.000  
G25  21469902.796   112825100.1411      -2963.057          44.000    21469911.490    84252543.4191      -2212.186          36.000  
G26  22610208.978   118817390.0501       2775.247          42.000    22610215.873    88727288.8461       2072.431          39.000  
G29  20285746.870   106602318.4111       -501.028          44.000  
G31  21877265.584   114965806.2741      -1422.737          45.000  
R01  23366855.762                        2058.548          22.000  
R07  24605173.393                       -3107.348          32.000  
R09  24455413.270                        4193.114          30.000  
R14  23313193.812                       -4725.368          31.000  
R15  19683477.612                       -2353.898          32.000  
R16  20354434.118                        2208.868          29.000  
R17  19128867.261                       -1049.839          43.000  
R18  20546142.102                        2585.278          42.000  
R24  22223495.894                       -3983.633          26.000  
> 2021  4 16 13  0 30.9987812  0 38
C05  39354272.804   204928025.4371       -243.558          32.000  
C08  39218734.835   204222243.1721      -1226.127          28.000  
C13  37382414.293   194660040.6711       -597.903          27.000  
C14  25866305.529   134692406.7521        160.571          20.000  
C27  21392109.051   111394325.3171       -466.695          43.000  
C28  24241493.064   126231815.1461      -2976.664          34.000  
C30  23330482.543   121487808.4321       2285.717          42.000  
C36  23351378.077   121596583.2431       1218.255          40.000  
C37  26128918.026   136060132.4211      -3781.655          24.000  
C38  38512294.893   200543624.9251      -1039.535          29.000  
C46  22432737.839   116813152.1491      -2020.707          47.000  
E01                                                                                                                                  28634158.884   112366579.4291       2091.698          37.000  
E13                                                                                                                                  24703047.836    96939992.0121       1582.849          33.000  
E15                                                                                                                                  23235284.947    91180248.4121       -451.151          34.000  
E21                                                                                                                                  24494305.045    96120823.5991       1043.373          41.000  
E27                                                                                                                                  23689627.612    92963186.2741      -1155.216          37.000  
E30                                                                                                                                  26544421.379   104166010.1391      -2462.211          34.000  
G02  24866421.535   130673926.4431      -3325.509          21.000  
G04  25130918.227   132063866.1321       -733.031          29.000    25130931.118    98619171.4981       -543.529          39.000  
G05  23095122.679   121365548.2751       1531.692          23.000  
G12  24735659.259   129986766.3871      -3986.337          38.000  
G16  24953249.525   131130193.1401       3519.173          31.000  
G18  22466966.343   118064462.2051       3113.092          34.000  
G20  24789012.724   130267194.8071       3171.026          38.000  
G25  21470407.346   112827751.3981      -2964.480          44.000    21470416.640    84254525.7021      -2212.911          37.000  
G26  22609620.485   118814299.1601       2775.932          42.000    22609627.680    88724980.9781       2072.508          39.000  
G29  20285781.346   106602499.9561       -502.888          44.000  
G31  21877475.739   114966910.2961      -1423.253          44.000  
R01  23366405.174                        2056.804          26.000  
R07  24605692.334                       -3107.548          35.000  
R08  23310371.865                        -530.700          29.000  
R09  24454563.658                        4194.336          26.000  
R14  23314018.241                       -4726.003          30.000  
R15  19683857.749                       -2355.358          30.000  
R16  20353961.346                        2207.410          31.000  
R17  19129003.666                       -1051.114          42.000  
R18  20545591.083                        2584.067          43.000  
R24  22224178.821                       -3996.240          29.000  
> 2021  4 16 13  0 31.9987812  0 33
C05  39354320.171   204928271.6501       -243.319          33.000  
C13  37382530.613   194660646.7761       -603.335          26.000  
C27  21392199.588   111394796.8511       -466.718          42.000  
C28  24242064.768   126234792.2351      -2978.019          35.000  
C30  23330042.448   121485522.7221       2285.879          42.000  
C36  23351146.038   121595365.1211       1217.407          41.000  
C37  26129644.424   136063914.8531      -3787.654          31.000  
C38  38512494.255   200544663.6001      -1040.869          27.000  
C46  22433124.871   116815168.0141      -2021.048          47.000  
E01                                                                                                                                  28633625.254   112364487.0291       2093.482          35.000  
E13                                                                                                                                  24702644.915    96938408.8541       1582.426          33.000  
E15                                                                                                                                  23235399.767    91180698.5861       -452.356          34.000  
E21                                                                                                                                  24494038.830    96119779.7881       1044.128          40.000  
E27                                                                                                                                  23689922.308    92964342.9311      -1155.640          38.000  
E30                                                                                                                                  26545049.145   104168474.2281      -2461.902          34.000  
G04  25131057.331   132064596.8441       -732.468          30.000    25131069.023    98619712.6101       -543.957          35.000  
G05  23094830.981   121364017.2561       1529.137          25.000  
G12  24736417.435   129990750.7521      -3985.453          38.000  
G16  24952581.887   131126672.9701       3520.503          25.000  
G18  22466375.452   118061349.2971       3112.546          38.000  
G20  24788409.541   130264023.6961       3171.473          38.000  
G25  21470971.256   112830714.9661      -2964.810          44.000    21470979.650    84256735.1911      -2214.187          36.000  
G26  22609093.450   118811522.8471       2776.935          42.000    22609099.146    88722907.7891       2073.514          39.000  
G29  20285876.380   106602999.1181       -502.711          43.000  
G31  21877746.152   114968331.6111      -1424.162          45.000  
R01  23366025.037                        2050.476          25.000  
R07  24606275.730                       -3107.491          32.000  
R09  24453776.703                        4192.803          29.000  
R14  23314902.629                       -4726.887          32.000  
R15  19684301.741                       -2356.487          27.000  
R16  20353547.632                        2206.481          32.000  
R17  19129197.632                       -1051.875          42.000  
R18  20545084.134                        2577.099          41.000  
> 2021  4 16 13  0 32.9987809  0 35
C05  39354277.301   204928048.5001       -244.430          33.000  
C08  39219109.276   204224192.9891      -1223.865          25.000  
C13  37382557.894   194660788.6591       -608.436          22.000  
C27  21392198.989   111394793.2271       -467.623          44.000  
C28  24242546.234   126237299.4951      -2979.277          33.000  
C30  23329513.314   121482768.7331       2285.167          43.000  
C36  23350824.361   121593679.7851       1216.807          40.000  
C37  26130282.082   136067235.4661      -3793.830          32.000  
C38  38512602.780   200545228.7021      -1041.240          28.000  
C46  22433423.764   116816724.3071      -2021.911          47.000  
E01                                                                                                                                  28633001.985   112362041.1891       2092.735          31.000  
E13                                                                                                                                  24702151.756    96936473.2531       1583.178          33.000  
E15                                                                                                                                  23235425.250    91180798.6641       -452.323          34.000  
E21                                                                                                                                  24493683.276    96118383.3921       1042.595          41.000  
E27                                                                                                                                  23690126.467    92965144.5491      -1154.930          37.000  
E30                                                                                                                                  26545586.673   104170582.8841      -2462.586          33.000  
G02  24867600.918   130680124.5121      -3325.227          22.000  
G04  25131107.396   132064859.8771       -730.229          32.000    25131116.990    98619900.7811       -544.598          34.000  
G05  23094450.545   121362016.7101       1526.126          31.000  
G12  24737085.072   129994258.9901      -3985.677          37.000  
G16  24951823.712   131122680.1701       3519.419          26.000  
G18  22465693.424   118057764.1501       3112.225          39.000  
G20  24787715.522   130260379.3981       3171.762          39.000  
G25  21471445.528   112833207.7991      -2964.865          44.000    21471453.922    84258596.2271      -2212.423          35.000  
G26  22608475.278   118808275.1211       2773.960          39.000    22608480.974    88720482.2621       2071.340          37.000  
G29  20285882.076   106603029.0481       -502.688          42.000  
G31  21877928.126   114969287.5091      -1424.815          45.000  
R07  24606766.190                       -3107.664          29.000  
R09  24452902.808                        4191.211          25.000  
R14  23315698.578                       -4727.752          34.000  
R15  19684651.599                       -2357.724          37.000  
R16  20353044.880                        2205.388          32.000  
R17  19129305.857                       -1052.019          42.000  
R18  20544502.237                        2577.938          43.000  
R24  22225579.452                       -4004.968          30.000  
> 2021  4 16 13  0 33.9987807  0 37
C05  39354264.410   204927981.6721       -244.613          35.000  
C08  39219281.956   204225092.8731      -1226.968          27.000  
C13  37382615.754   194661090.0591       -615.590          24.000  
C27  21392228.069   111394944.2861       -467.377          42.000  
C28  24243057.680   126239962.9071      -2978.212          37.000  
C30  23329014.459   121480171.9901       2284.180          42.000  
C36  23350532.363   121592151.7541       1214.946          42.000  
C37  26130953.917   136070733.9381      -3801.343          25.000  
C38  38512741.884   200545952.9451      -1041.670          30.000  
C42  26776347.420   139431466.8341       -957.015          30.000  
C46  22433750.837   116818427.0151      -2021.375          47.000  
E01                                                                                                                                  28632408.996   112359713.3431       2092.767          29.000  
E13                                                                                                                                  24701688.277    96934655.1541       1582.779          33.000  
E15                                                                                                                                  23235480.412    91181015.6361       -452.105          34.000  
E21                                                                                                                                  24493357.701    96117105.9951       1041.246          41.000  
E27                                                                                                                                  23690361.804    92966067.1621      -1155.479          38.000  
E30                                                                                                                                  26546154.480   104172811.5841      -2461.940          33.000  
G04  25131186.242   132065274.5111       -731.355          30.000    25131196.735    98620212.9341       -546.569          36.000  
G05  23094102.186   121360176.6311       1524.086          27.000  
G12  24737784.788   129997935.7011      -3982.898          38.000  
G16  24951094.317   131118845.9911       3518.141          24.000  
G18  22465037.778   118054336.3881       3112.768          39.000  
G20  24787053.280   130256892.8341       3172.663          36.000  
G25  21471949.479   112835855.9321      -2964.283          43.000    21471958.472    84260576.0461      -2213.519          36.000  
G26  22607886.186   118805186.1781       2773.496          40.000    22607893.681    88718175.7841       2070.936          38.000  
G29  20285918.651   106603221.8601       -502.622          43.000  
G31  21878139.479   114970398.7601      -1426.474          45.000  
R01  23365106.174                        2041.741          24.000  
R07  24607287.529                       -3109.622          31.000  
R08  23310508.871                        -533.702          35.000  
R09  24452058.892                        4192.216          27.000  
R14  23316524.506                       -4726.734          32.000  
R15  19685035.034                       -2357.876          32.000  
R16  20352570.908                        2203.737          31.000  
R17  19129443.462                       -1052.274          43.000  
R18  20543968.007                        2584.169          43.000  
R24  22226266.576                       -4004.448          29.000  
> 2021  4 16 13  0 34.9987807  0 36
C05  39354311.477   204928226.2751       -244.706          33.000  
C08  39219516.394   204226313.7491      -1225.997          26.000  
C13  37382736.270   194661716.9741       -618.127          23.000  
C27  21392318.006   111395412.6981       -467.993          43.000  
C28  24243629.085   126242937.9881      -2978.013          39.000  
C30  23328576.163   121477887.2801       2284.653          42.000  
C36  23350299.124   121590937.2751       1213.428          42.000  
C37  26131682.712   136074528.9551      -3796.422          29.000  
C38  38512941.845   200546993.8531      -1040.895          29.000  
C46  22434140.568   116820456.6521      -2022.208          48.000  
E01                                                                                                                                  28631875.065   112357622.4301       2089.499          26.000  
E13                                                                                                                                  24701284.756    96933072.2141       1583.073          34.000  
E15                                                                                                                                  23235596.132    91181469.0761       -453.372          35.000  
E21                                                                                                                                  24493092.385    96116064.8651       1040.908          41.000  
E27                                                                                                                                  23690655.600    92967220.4061      -1154.408          38.000  
E30                                                                                                                                  26546781.046   104175270.0021      -2459.722          34.000  
G04  25131324.746   132066002.2221       -733.186          31.000    25131336.438    98620761.7771       -547.995          32.000  
G05  23093812.586   121358652.1811       1524.401          28.000  
G12  24738544.162   130001926.4481      -3981.918          37.000  
G16  24950426.079   131115332.5921       3513.146          21.000  
G18  22464444.189   118051223.1241       3112.994          39.000  
G20  24786449.798   130253718.4981       3174.628          35.000  
G25  21472514.288   112838823.4981      -2962.743          44.000    21472522.382    84262789.7781      -2212.240          37.000  
G26  22607358.252   118802413.5671       2771.783          42.000    22607365.746    88716105.2141       2069.995          38.000  
G29  20286014.584   106603725.2331       -503.050          43.000  
G31  21878411.391   114971827.5341      -1427.191          45.000  
R01  23364721.540                        2037.127          30.000  
R07  24607867.328                       -3113.703          27.000  
R08  23310604.504                        -535.538          35.000  
R09  24451274.935                        4188.961          29.000  
R14  23317408.894                       -4724.903          29.000  
R15  19685478.727                       -2358.282          33.000  
R16  20352158.094                        2202.299          30.000  
R17  19129640.725                       -1053.412          43.000  
R18  20543491.637                        2581.145          43.000  
R24  22227013.359                       -4004.361          30.000  
> 2021  4 16 13  0 35.9987804  0 36
C05  39354269.206   204928006.5101       -244.692          34.000  
C08  39219660.294   204227062.6741      -1225.971          26.000  
C13  37382765.050   194661866.6641       -615.300          25.000  
C27  21392318.006   111395412.6341       -468.114          42.000  
C28  24244113.549   126245460.5681      -2978.228          39.000  
C30  23328047.329   121475134.7791       2283.950          43.000  
C36  23349975.648   121589256.6091       1211.794          41.000  
C37  26132320.071   136077847.9491      -3792.885          31.000  
C38  38513051.269   200547563.8111      -1041.844          31.000  
C46  22434439.161   116822011.3351      -2022.038          47.000  
E01                                                                                                                                  28631253.895   112355180.2911       2088.641          30.000  
E13                                                                                                                                  24700791.298    96931135.8691       1583.668          33.000  
E15                                                                                                                                  23235621.914    91181570.3701       -452.871          33.000  
E21                                                                                                                                  24492737.131    96114671.6951       1040.043          41.000  
E27                                                                                                                                  23690859.759    92968021.4261      -1155.960          38.000  
E30                                                                                                                                  26547317.674   104177375.7971      -2458.953          34.000  
G04  25131373.912   132066260.6381       -735.485          30.000    25131385.904    98620956.0871       -548.291          31.000  
G05  23093431.550   121356656.4951       1523.176          29.000  
G12  24739212.100   130005436.8561      -3981.473          40.000  
G16  24949667.605   131111346.6671       3511.939          24.000  
G18  22463761.861   118047636.8871       3113.995          40.000  
G20  24785754.879   130250070.2971       3175.286          37.000  
G25  21472987.960   112841312.7381      -2962.565          43.000    21472995.455    84264645.8901      -2212.062          35.000  
G26  22606741.279   118799169.8591       2770.464          43.000    22606748.773    88713683.2281       2068.296          39.000  
G29  20286020.580   106603757.3881       -504.903          42.000  
G31  21878593.065   114972782.4161      -1428.177          45.000  
R01  23364247.868                        2035.338          33.000  
R07  24608366.482                       -3114.845          28.000  
R08  23310609.001                        -538.430          29.000  
R09  24450402.539                        4185.747          28.000  
R14  23318204.843                       -4723.694          27.000  
R15  19685830.083                       -2358.345          34.000  
R16  20351658.940                        2201.026          31.000  
R17  19129745.952                       -1054.541          43.000  
R18  20542919.333                        2585.315          43.000  
R24  22227672.303                       -3998.262          31.000  
> 2021  4 16 13  0 36.9987804  0 35
C05  39354315.974   204928250.5651       -245.074          34.000  
C08  39219895.032   204228285.2221      -1227.090          26.000  
C13  37382880.171   194662466.2901       -610.501          23.000  
C27  21392406.745   111395874.9751       -467.707          43.000  
C28  24244685.254   126248438.0371      -2977.187          35.000  
C30  23327609.632   121472851.4491       2282.810          43.000  
C36  23349742.410   121588044.9991       1210.330          41.000  
C37  26133047.068   136081633.3281      -3791.839          31.000  
C38  38513250.631   200548601.8681      -1039.692          31.000  
C46  22434827.092   116824031.7381      -2022.490          47.000  
E01                                                                                                                                  28630723.263   112353092.6671       2087.235          35.000  
E13                                                                                                                                  24700387.478    96929552.0641       1583.374          33.000  
E15                                                                                                                                  23235737.334    91182023.6911       -452.226          34.000  
E21                                                                                                                                  24492472.714    96113632.3221       1038.876          41.000  
E27                                                                                                                                  23691154.455    92969177.9501      -1155.041          38.000  
E30                                                                                                                                  26547943.941   104179833.7631      -2457.069          35.000  
G04  25131514.515   132066999.3291       -738.136          28.000    25131526.506    98621507.1861       -550.527          32.000  
G05  23093141.351   121355131.6001       1527.962          32.000  
G12  24739968.476   130009411.4631      -3979.087          38.000  
G16  24948999.967   131107834.3061       3512.497          26.000  
G18  22463169.771   118044522.9051       3114.599          40.000  
G20  24785150.797   130246894.1291       3175.880          36.000  
G25  21473550.970   112844271.9571      -2962.764          44.000    21473559.064    84266857.7421      -2212.503          35.000  
G26  22606213.344   118796399.9931       2768.401          41.000    22606221.738    88711615.1101       2067.201          38.000  
G29  20286116.814   106604263.3731       -505.314          43.000  
G31  21878865.277   114974212.1241      -1429.506          46.000  
R07  24608945.382                       -3118.050          28.000  
R08  23310708.232                        -537.630          30.000  
R09  24449617.082                        4185.442          30.000  
R14  23319090.729                       -4722.728          32.000  
R15  19686268.680                       -2358.301          38.000  
R16  20351250.922                        2199.433          32.000  
R17  19129946.514                       -1055.786          43.000  
R18  20542439.665                        2580.915          44.000  
R24  22228416.388                       -3998.116          30.000  
> 2021  4 16 13  0 37.9987802  0 35
C05  39354302.483   204928180.0121       -244.309          35.000  
C08  39220068.911   204229190.1351      -1225.492          26.000  
C13  37382937.431   194662764.4451       -609.522          26.000  
C27  21392437.324   111396034.6371       -468.172          42.000  
C28  24245196.100   126251098.1311      -2977.958          38.000  
C30  23327111.677   121470256.0931       2282.607          43.000  
C36  23349449.812   121586522.8381       1209.051          42.000  
C37  26133713.507   136085103.7461      -3787.556          28.000  
C38  38513388.836   200549321.9061      -1038.446          29.000  
C46  22435155.665   116825742.1911      -2022.623          48.000  
E01                                                                                                                                  28630131.472   112350770.8101       2085.762          36.000  
E13                                                                                                                                  24699924.298    96927734.2571       1582.724          34.000  
E15                                                                                                                                  23235792.795    91182241.2621       -452.802          34.000  
E21                                                                                                                                  24492148.039    96112358.4891       1038.390          41.000  
E27                                                                                                                                  23691388.593    92970096.9441      -1155.637          38.000  
E30                                                                                                                                  26548509.649   104182053.9341      -2456.498          33.000  
G04  25131596.957   132067432.4871       -740.438          30.000    25131608.350    98621828.3861       -552.103          31.000  
G05  23092790.594   121353286.0161       1534.089          28.000  
G12  24740666.993   130013082.3301      -3980.547          38.000  
G16  24948269.373   131104006.3321       3512.824          29.000  
G18  22462517.123   118041093.1151       3115.584          39.000  
G20  24784487.057   130243402.0441       3177.436          28.000  
G25  21474054.022   112846914.8031      -2961.290          43.000    21474063.315    84268836.0871      -2211.239          35.000  
G26  22605628.149   118793317.1961       2767.017          42.000    22605634.745    88709312.6071       2066.965          38.000  
G29  20286153.688   106604456.2961       -504.540          43.000  
G31  21879076.331   114975321.8141      -1430.249          47.000  
R01  23363424.937                        2035.609          27.000  
R07  24609470.318                       -3120.493          28.000  
R09  24448776.164                        4181.400          27.000  
R14  23319917.557                       -4721.530          32.000  
R15  19686649.716                       -2358.391          32.000  
R16  20350783.546                        2197.723          32.000  
R17  19130087.116                       -1055.327          43.000  
R18  20541895.242                        2574.254          44.000  
R24  22229104.111                       -4000.568          29.000  
> 2021  4 16 13  0 38.9987802  0 34
C05  39354349.251   204928423.6041       -242.795          34.000  
C08  39220304.848   204230419.0131      -1224.417          24.000  
C13  37383053.750   194663370.2571       -603.134          23.000  
C27  21392526.362   111396497.7031       -468.601          43.000  
C28  24245767.205   126254072.0131      -2977.582          35.000  
C30  23326673.680   121467973.4541       2281.928          43.000  
C36  23349218.073   121585314.7351       1206.351          42.000  
C37  26134438.405   136088878.8551      -3783.275          30.000  
C38  38513589.097   200550364.6151      -1037.176          27.000  
C46  22435542.997   116827758.9581      -2022.661          47.000  
E01                                                                                                                                  28629600.240   112348685.0591       2085.491          36.000  
E13                                                                                                                                  24699521.077    96926150.8071       1583.377          34.000  
E15                                                                                                                                  23235908.515    91182695.1191       -453.358          34.000  
E21                                                                                                                                  24491883.322    96111320.3751       1037.469          41.000  
E27                                                                                                                                  23691683.289    92971253.1481      -1155.262          37.000  
E30                                                                                                                                  26549135.316   104184509.0251      -2455.784          34.000  
G04  25131739.359   132068180.9491       -742.459          34.000    25131748.952    98622380.0661       -554.668          32.000  
G05  23092499.495   121351751.4551       1534.329          28.000  
G16  24947601.735   131100494.0551       3511.298          27.000  
G18  22461923.234   118037978.2421       3114.762          39.000  
G20  24783882.375   130240223.3661       3179.423          30.000  
G25  21474618.231   112849879.8271      -2961.078          44.000    21474626.925    84271048.2891      -2211.860          36.000  
G26  22605102.913   118790550.5971       2765.697          43.000    22605108.909    88707245.9621       2066.057          39.000  
G29  20286249.322   106604958.8751       -506.233          44.000  
G31  21879349.741   114976758.7071      -1431.902          46.000  
R07  24610055.213                       -3122.995          30.000  
R08  23310853.932                        -543.497          31.000  
R09  24447994.905                        4183.957          34.000  
R14  23320803.444                       -4720.385          32.000  
R15  19687089.512                       -2358.722          31.000  
R16  20350377.627                        2196.139          30.000  
R17  19130282.581                       -1056.812          43.000  
R18  20541409.278                        2573.108          43.000  
R24  22229851.194                       -3998.511          31.000  
> 2021  4 16 13  0 39.9987799  0 37
C05  39354305.781   204928196.5601       -239.944          34.000  
C08  39220449.947   204231174.2331      -1225.174          27.000  
C13  37383076.834   194663490.9091       -597.564          25.000  
C27  21392526.662   111396500.1101       -468.599          42.000  
C28  24246248.671   126256578.8971      -2976.712          35.000  
C30  23326144.846   121465222.8721       2282.294          44.000  
C36  23348895.496   121583639.5091       1207.027          40.000  
C37  26135073.965   136092188.3171      -3781.294          32.000  
C38  38513697.022   200550926.5131      -1037.672          29.000  
C42  26777228.810   139436056.8351       -962.803          25.000  
C46  22435841.890   116829315.9211      -2023.524          47.000  
E01                                                                                                                                  28628979.370   112346247.6901       2083.230          37.000  
E13                                                                                                                                  24699027.619    96924214.3401       1583.635          33.000  
E15                                                                                                                                  23235933.998    91182795.2601       -453.629          33.000  
E21                                                                                                                                  24491528.967    96109930.2261       1037.161          41.000  
E27                                                                                                                                  23691887.747    92972055.3061      -1154.362          37.000  
E30                                                                                                                                  26549670.745   104186610.0561      -2454.491          33.000  
G02  24871756.941   130701964.2081      -3327.616          23.000  
G04  25131791.223   132068454.2451       -745.144          30.000    25131801.116    98622584.8481       -555.987          31.000  
G05  23092117.859   121349744.7381       1533.191          29.000  
G12  24742088.309   130020551.4051      -3976.810          34.000  
G16  24946844.459   131096510.4741       3510.419          36.000  
G18  22461241.206   118034391.0911       3114.768          39.000  
G20  24783187.756   130236570.3701       3180.699          33.000  
G25  21475091.603   112852367.9871      -2960.950          44.000    21475099.698    84272902.8401      -2211.125          35.000  
G26  22604486.540   118787312.8001       2765.180          43.000    22604492.535    88704827.9611       2065.017          39.000  
G29  20286256.517   106604996.8881       -507.000          43.000  
G31  21879532.615   114977719.4161      -1432.398          46.000  
R07  24610547.473                       -3124.110          29.000  
R08  23310864.724                        -544.651          36.000  
R09  24447123.708                        4184.376          28.000  
R14  23321599.692                       -4719.767          31.000  
R15  19687439.669                       -2359.459          33.000  
R16  20349878.172                        2194.617          32.000  
R17  19130387.209                       -1056.970          42.000  
R18  20540815.989                        2578.162          43.000  
R24  22230508.040                       -3998.038          31.000  
> 2021  4 16 13  0 40.9987796  0 36
C05  39354260.812   204927963.0341       -238.037          34.000  
C08  39220593.248   204231920.7541      -1227.912          26.000  
C13  37383099.019   194663606.5391       -597.987          25.000  
C14  25865543.157   134688671.3441        164.592          28.000  
C27  21392526.962   111396501.4571       -468.375          43.000  
C28  24246730.438   126259087.2141      -2976.746          38.000  
C30  23325615.712   121462472.5801       2281.646          43.000  
C36  23348574.118   121581964.6591       1205.468          42.000  
C37  26135708.925   136095494.1331      -3780.363          33.000  
C38  38513808.845   200551508.8281      -1039.815          29.000  
C46  22436141.083   116830873.8481      -2023.024          47.000  
E01                                                                                                                                  28628358.800   112343811.2721       2084.645          33.000  
E13                                                                                                                                  24698533.561    96922277.9301       1584.291          33.000  
E15                                                                                                                                  23235959.480    91182894.8881       -453.869          32.000  
E21                                                                                                                                  24491174.912    96108540.4281       1036.592          41.000  
E27                                                                                                                                  23692091.306    92972854.5251      -1154.919          38.000  
E30                                                                                                                                  26550205.875   104188709.8081      -2453.319          33.000  
G04  25131845.785   132068740.9031       -747.611          28.000    25131853.280    98622789.9691       -556.186          27.000  
G05  23091735.924   121347740.2581       1530.002          26.000  
G12  24742753.848   130024048.9201      -3975.392          36.000  
G18  22460558.579   118030803.2721       3114.239          39.000  
G20  24782493.137   130232916.0861       3182.394          35.000  
G25  21475564.976   112854854.8431      -2960.232          43.000    21475571.871    84274756.3991      -2210.453          35.000  
G26  22603871.365   118784075.5041       2763.851          41.000    22603877.062    88702410.4141       2063.686          38.000  
G29  20286261.613   106605024.2571       -507.289          43.000  
G31  21879714.889   114978677.3251      -1433.379          46.000  
R01  23362124.438                        2058.024          27.000  
R07  24611044.828                       -3125.806          29.000  
R08  23310876.716                        -546.076          33.000  
R09  24446250.713                        4182.362          30.000  
R14  23322395.641                       -4718.640          33.000  
R15  19687789.527                       -2359.444          35.000  
R16  20349378.718                        2193.331          30.000  
R17  19130494.834                       -1058.755          43.000  
R18  20540239.788                        2581.217          43.000  
R24  22231165.185                       -4001.213          30.000  
> 2021  4 16 13  0 41.9987796  0 36
C05  39354305.481   204928195.9431       -236.127          33.000  
C13  37383213.540   194664201.9801       -599.443          23.000  
C14  25865518.574   134688507.7051        163.278          25.000  
C27  21392618.099   111396975.6241       -470.021          43.000  
C28  24247302.142   126262065.0881      -2976.920          35.000  
C30  23325177.715   121460190.6481       2281.041          42.000  
C36  23348343.578   121580760.1031       1204.364          41.000  
C37  26136434.123   136099270.1771      -3781.913          31.000  
C38  38514009.406   200552552.9511      -1040.521          27.000  
C42  26777509.116   139437516.8441       -975.157          23.000  
C46  22436530.213   116832900.1611      -2023.727          47.000  
E01                                                                                                                                  28627829.966   112341727.8431       2083.085          27.000  
E13                                                                                                                                  24698130.340    96920694.2021       1583.415          33.000  
E15                                                                                                                                  23236074.900    91183348.2801       -452.726          34.000  
E21                                                                                                                                  24490911.095    96107504.0631       1035.397          40.000  
E27                                                                                                                                  23692386.002    92974011.1471      -1155.004          37.000  
E30                                                                                                                                  26550831.542   104191165.3201      -2453.922          33.000  
G04  25131989.086   132069493.1321       -748.974          30.000    25131995.082    98623346.0231       -558.158          28.000  
G05  23091444.526   121346211.1371       1528.125          32.000  
G12  24743509.025   130028016.8301      -3974.447          38.000  
G16  24945411.451   131089019.5411       3507.328          43.000  
G18  22459964.990   118027687.6621       3115.723          40.000  
G20  24781888.156   130229733.2471       3183.588          38.000  
G25  21476127.686   112857812.1351      -2960.045          43.000    21476135.781    84276969.2981      -2210.101          36.000  
G26  22603344.330   118781311.9191       2762.474          42.000    22603351.226    88700346.8911       2063.036          39.000  
G29  20286358.746   106605533.7811       -507.757          43.000  
G31  21879988.299   114980113.7411      -1434.397          46.000  
R07  24611629.723                       -3126.519          30.000  
R08  23310977.146                        -546.621          33.000  
R09  24445472.152                        4180.301          26.000  
R14  23323281.528                       -4718.025          32.000  
R15  19688232.021                       -2359.961          30.000  
R16  20348967.403                        2191.748          31.000  
R17  19130692.997                       -1059.261          42.000  
R18  20539773.311                        2567.745          42.000  
R24  22231914.966                       -4004.345          30.000  
> 2021  4 16 13  0 42.9987796  0 37
C05  39354348.651   204928420.6571       -234.142          31.000  
C08  39221067.220   204234389.0501      -1229.206          25.000  
C13  37383327.461   194664795.6971       -596.786          24.000  
C14  25865490.693   134688345.2901        160.295          24.000  
C27  21392708.036   111397444.5681       -470.222          42.000  
C28  24247873.546   126265040.3441      -2977.932          37.000  
C30  23324739.419   121457909.4891       2280.323          43.000  
C36  23348110.939   121579555.7681       1204.005          41.000  
C37  26137159.921   136103049.6701      -3780.661          30.000  
C38  38514210.567   200553600.8191      -1044.617          28.000  
C42  26777695.587   139438487.2671       -975.825          25.000  
C46  22436919.344   116834926.7211      -2023.568          48.000  
E01                                                                                                                                  28627299.333   112339645.3381       2082.290          33.000  
E13                                                                                                                                  24697726.520    96919110.7431       1583.315          32.000  
E15                                                                                                                                  23236189.421    91183797.3151       -453.388          34.000  
E21                                                                                                                                  24490646.978    96106468.8221       1035.232          40.000  
E27                                                                                                                                  23692680.399    92975166.4131      -1155.083          36.000  
E30                                                                                                                                  26551456.909   104193619.2441      -2453.763          34.000  
G04  25132132.387   132070246.1831       -749.330          30.000    25132136.584    98623901.5161       -558.782          32.000  
G05  23091152.828   121344682.5381       1528.753          30.000  
G12  24744265.402   130031991.3941      -3975.356          37.000  
G16  24944744.713   131085511.8051       3507.722          40.000  
G18  22459373.199   118024571.8221       3115.508          41.000  
G20  24781283.175   130226549.1601       3184.049          38.000  
G25  21476691.596   112860775.1251      -2960.100          44.000    21476699.690    84279181.6641      -2210.586          36.000  
G26  22602817.595   118778549.2901       2761.762          41.000    22602824.490    88698283.9431       2063.193          37.000  
G29  20286454.979   106606039.4661       -507.536          43.000  
G31  21880260.811   114981546.3741      -1434.916          46.000  
R07  24612216.117                       -3128.224          29.000  
R08  23311082.373                        -547.319          37.000  
R09  24444688.794                        4177.386          30.000  
R14  23324168.914                       -4717.143          31.000  
R15  19688672.116                       -2360.560          32.000  
R16  20348559.385                        2190.343          31.000  
R17  19130890.260                       -1060.016          42.000  
R18  20539305.035                        2583.813          42.000  
R24  22232664.147                       -4003.118          30.000  
> 2021  4 16 13  0 43.9987796  0 34
C05  39354393.320   204928652.4441       -231.945          33.000  
C13  37383439.883   194665380.7101       -595.352          26.000  
C14  25865465.811   134688188.1201        152.509          28.000  
C27  21392798.274   111397913.5901       -470.873          42.000  
C28  24248444.951   126268016.0611      -2977.559          36.000  
C30  23324301.122   121455629.1651       2280.298          43.000  
C36  23347881.598   121578352.6521       1202.657          40.000  
C37  26137885.418   136106827.9971      -3780.042          31.000  
C38  38514410.528   200554642.2761      -1043.065          31.000  
C46  22437306.376   116836941.7271      -2024.128          46.000  
E01                                                                                                                                  28626769.900   112337562.9751       2081.963          33.000  
E13                                                                                                                                  24697322.999    96917526.2601       1584.487          33.000  
E15                                                                                                                                  23236304.541    91184249.3841       -453.283          34.000  
E21                                                                                                                                  24490383.161    96105433.8571       1034.913          40.000  
E27                                                                                                                                  23692974.795    92976321.6251      -1154.768          37.000  
E30                                                                                                                                  26552082.276   104196073.0471      -2452.493          34.000  
G02  24874219.736   130714906.0941      -3333.970          28.000  
G04  25132276.287   132071002.8891       -750.501          29.000    25132278.985    98624460.1801       -560.169          35.000  
G05  23090861.129   121343153.4141       1528.601          29.000  
G12  24745025.675   130035987.5441      -3971.853          37.000  
G16  24944078.274   131082004.4401       3506.911          37.000  
G18  22458783.208   118021456.8671       3115.083          40.000  
G20  24780672.797   130223364.7941       3184.949          38.000  
G25  21477255.206   112863736.9551      -2959.860          43.000    21477263.300    84281393.9821      -2210.077          36.000  
G26  22602291.759   118775787.7541       2760.924          42.000    22602299.254    88696221.2361       2061.901          38.000  
G29  20286552.112   106606550.3651       -508.727          43.000  
G31  21880534.521   114982984.9751      -1436.393          46.000  
R07  24612801.012                       -3129.704          29.000  
R09  24443908.434                        4177.725          31.000  
R14  23325052.702                       -4715.857          33.000  
R15  19689111.911                       -2361.209          35.000  
R16  20348151.368                        2189.012          30.000  
R17  19131090.522                       -1060.678          43.000  
R18  20538822.069                        2573.175          44.000  
> 2021  4 16 13  0 44.9987794  0 36
C05  39354377.731   204928571.3951       -230.231          35.000  
C13  37383495.045   194665668.4231       -595.213          25.000  
C14  25865383.068   134687726.9321        146.203          30.000  
C27  21392828.253   111398069.6921       -470.048          42.000  
C28  24248955.797   126270676.0721      -2977.180          37.000  
C30  23323803.467   121453036.9841       2279.631          43.000  
C36  23347590.200   121576838.8951       1200.537          41.000  
C37  26138550.658   136110292.3571      -3778.854          34.000  
C38  38514552.030   200555378.4071      -1041.783          31.000  
C46  22437635.248   116838653.8261      -2024.534          47.000  
E01                                                                                                                                  28626178.409   112335245.1981       2081.588          29.000  
E13                                                                                                                                  24696859.820    96915706.6971       1584.165          33.000  
E15                                                                                                                                  23236360.003    91184467.3961       -453.291          33.000  
E21                                                                                                                                  24490059.684    96104164.2711       1033.388          40.000  
E27                                                                                                                                  23693208.333    92977237.8971      -1153.836          38.000  
E30                                                                                                                                  26552647.385   104198290.7831      -2451.866          34.000  
G02  24874797.436   130717942.1571      -3339.927          29.000  
G04  25132358.730   132071435.7531       -751.859          34.000    25132361.128    98624782.9591       -561.297          34.000  
G05  23090510.073   121341309.1401       1531.244          30.000  
G12  24745723.292   130039652.7571      -3972.605          35.000  
G16  24943350.078   131078183.7151       3504.925          42.000  
G18  22458128.461   118018026.3771       3116.680          39.000  
G20  24780004.860   130219864.0891       3187.179          37.000  
G25  21477757.658   112866377.8181      -2959.903          44.000    21477766.652    84283368.6921      -2210.046          36.000  
G26  22601706.564   118772712.8461       2758.921          41.000    22601714.059    88693924.2711       2060.769          38.000  
G29  20286587.788   106606738.3351       -509.152          43.000  
G31  21880747.674   114984104.6581      -1437.728          46.000  
R01  23360547.230                        2044.522          30.000  
R07  24613322.951                       -3131.391          36.000  
R09  24443064.519                        4176.881          34.000  
R14  23325874.133                       -4714.820          33.000  
R15  19689491.749                       -2361.747          35.000  
R16  20347681.893                        2187.804          31.000  
R17  19131229.026                       -1061.696          43.000  
R18  20538288.439                        2577.643          43.000  
R24  22234111.845                       -3999.709          32.000  
> 2021  4 16 13  0 45.9987794  0 34
C05  39354421.501   204928799.7721       -228.409          33.000  
C14  25865358.785   134687585.6841        138.341          26.000  
C27  21392918.790   111398541.1141       -470.766          42.000  
C28  24249528.401   126273657.6091      -2976.093          38.000  
C30  23323366.369   121450757.4521       2278.827          44.000  
C36  23347359.060   121575639.0651       1199.503          39.000  
C37  26139274.956   136114063.4441      -3777.519          32.000  
C38  38514752.592   200556423.1791      -1042.115          29.000  
C46  22438024.979   116840683.4281      -2024.651          47.000  
E01                                                                                                                                  28625646.277   112333164.7881       2079.912          31.000  
E13                                                                                                                                  24696456.299    96914122.8601       1583.288          34.000  
E15                                                                                                                                  23236475.723    91184921.3261       -454.417          34.000  
E21                                                                                                                                  24489796.467    96103130.9911       1032.762          40.000  
E27                                                                                                                                  23693503.329    92978395.5871      -1155.289          37.000  
E30                                                                                                                                  26553271.852   104200741.3501      -2451.668          34.000  
G02  24875436.594   130721301.2421      -3350.146          29.000  
G04  25132501.132   132072184.5601       -754.013          35.000    25132504.129    98625343.8391       -562.757          39.000  
G05  23090218.974   121339776.6801       1534.821          30.000  
G12  24746478.769   130043622.6961      -3971.777          34.000  
G16  24942684.839   131074680.2891       3503.271          42.000  
G18  22457532.474   118014908.3761       3113.746          39.000  
G20  24779399.279   130216676.8821       3187.789          38.000  
G25  21478320.968   112869338.4371      -2957.940          42.000    21478329.962    84285579.2661      -2209.612          36.000  
G26  22601181.328   118769954.3601       2758.099          41.000    22601189.122    88691863.7881       2059.178          38.000  
G29  20286684.620   106607246.2751       -509.299          42.000  
G31  21881020.785   114985539.4711      -1438.217          45.000  
R07  24613904.848                       -3135.485          37.000  
R09  24442279.062                        4174.974          35.000  
R14  23326753.724                       -4713.394          32.000  
R15  19689934.242                       -2361.619          31.000  
R16  20347270.578                        2186.744          30.000  
R17  19131424.490                       -1061.815          43.000  
R18  20537792.282                        2574.481          43.000  
R24  22234866.422                       -4002.381          33.000  
> 2021  4 16 13  0 46.9987791  0 38
C05  39354374.733   204928555.9201       -226.653          33.000  
C08  39221874.561   204238592.8221      -1230.515          27.000  
C13  37383636.847   194666406.4981       -594.228          25.000  
C14  25865244.564   134686981.6781        133.049          26.000  
C27  21392917.891   111398536.5851       -471.536          42.000  
C28  24250007.469   126276152.3221      -2975.769          38.000  
C30  23322838.735   121448010.0541       2278.989          43.000  
C36  23347039.481   121573972.2171       1197.813          41.000  
C37  26139909.317   136117367.0341      -3774.823          34.000  
C38  38514863.515   200557000.6241      -1041.577          31.000  
C46  22438322.672   116842233.5271      -2024.669          46.000  
E01                                                                                                                                  28625024.808   112330732.6311       2078.268          34.000  
E13                                                                                                                                  24695963.440    96912186.3781       1583.284          34.000  
E15                                                                                                                                  23236501.205    91185021.2791       -452.778          34.000  
E21                                                                                                                                  24489443.611    96101745.8841       1031.781          41.000  
E27                                                                                                                                  23693707.787    92979198.4461      -1154.003          38.000  
E30                                                                                                                                  26553806.382   104202838.8721      -2450.543          33.000  
G02  24875990.310   130724211.0301      -3358.464          28.000  
G04                                                                  25132557.792    98625554.3321       -564.277          40.000  
G05  23089838.238   121337769.7141       1534.255          29.000  
G12  24747142.510   130047110.8881      -3969.742          36.000  
G16  24941928.762   131070704.6751       3502.806          44.000  
G18  22456849.547   118011319.7311       3116.448          37.000  
G20  24778701.662   130213015.4311       3189.541          38.000  
G25  21478794.640   112871826.9601      -2958.223          44.000    21478802.734    84287434.4761      -2208.674          35.000  
G26  22600567.353   118766724.5761       2755.052          39.000    22600574.848    88689452.1281       2058.045          38.000  
G29  20286692.715   106607289.3241       -509.696          43.000  
G31  21881203.958   114986502.5111      -1439.433          45.000  
R01  23359699.117                        2041.740          29.000  
R07  24614396.808                       -3136.900          29.000  
R08  23311357.583                        -556.519          30.000  
R09  24441408.165                        4172.272          31.000  
R14  23327546.376                       -4712.405          32.000  
R15  19690285.899                       -2362.200          29.000  
R16  20346765.427                        2185.608          31.000  
R17  19131530.317                       -1062.921          42.000  
R18  20537211.584                        2574.932          43.000  
R24  22235533.760                       -4007.523          30.000  
> 2021  4 16 13  0 47.9987789  0 35
C05  39354358.545   204928472.0561       -224.090          33.000  
C08  39222050.839   204239511.2591      -1230.911          27.000  
C13  37383691.409   194666690.9001       -596.128          26.000  
C27  21392949.070   111398699.4491       -471.815          41.000  
C28  24250523.712   126278839.9121      -2975.746          38.000  
C30  23322340.779   121445419.4941       2277.714          43.000  
C36  23346749.282   121572463.2771       1195.336          40.000  
C37  26140573.358   136120824.6821      -3773.180          33.000  
C38  38515003.218   200557728.2791      -1040.951          31.000  
C46  22438652.444   116843950.9311      -2024.627          47.000  
E01                                                                                                                                  28624435.116   112328419.7481       2076.695          35.000  
E13                                                                                                                                  24695499.362    96910367.1701       1584.369          34.000  
E15                                                                                                                                  23236557.266    91185241.2251       -452.316          33.000  
E21                                                                                                                                  24489121.034    96100479.5851       1030.460          41.000  
E27                                                                                                                                  23693941.326    92980114.1231      -1153.566          38.000  
E30                                                                                                                                  26554370.292   104205051.6661      -2448.243          33.000  
G04  25132643.833   132072934.3621       -762.258          31.000    25132642.334    98625885.8101       -567.476          42.000  
G05  23089485.082   121335919.8601       1534.857          31.000  
G12  24747835.630   130050753.4521      -3966.990          36.000  
G16  24941202.665   131066888.3261       3500.215          38.000  
G18  22456197.798   118007886.9231       3118.943          40.000  
G20  24778035.523   130209508.8901       3192.858          36.000  
G25  21479296.792   112874465.8631      -2956.094          43.000    21479305.186    84289406.2411      -2207.850          35.000  
G26  22599982.458   118763654.8861       2753.687          40.000    22599990.252    88687159.6041       2055.847          38.000  
G29  20286731.088   106607491.2371       -510.292          43.000  
G31  21881417.710   114987625.8821      -1441.567          46.000  
R01  23359260.820                        2039.634          28.000  
R07  24614918.746                       -3139.484          32.000  
R09  24440569.046                        4168.964          32.000  
R14  23328369.606                       -4710.882          33.000  
R15  19690667.235                       -2361.740          32.000  
R16  20346295.952                        2183.433          31.000  
R17  19131671.220                       -1063.321          43.000  
R18  20536671.058                        2573.936          43.000  
R24  22236220.285                       -4005.485          29.000  
> 2021  4 16 13  0 48.9987789  0 33
C05  39354402.014   204928698.3851       -220.965          33.000  
C27  21393041.106   111399178.9561       -471.414          42.000  
C28  24251095.116   126281815.5321      -2974.507          39.000  
C30  23321903.382   121443141.8641       2276.948          42.000  
C36  23346521.140   121571270.5031       1190.883          41.000  
C37  26141297.057   136124593.5361      -3767.309          32.000  
C38  38515202.280   200558764.5491      -1039.759          31.000  
C46  22439042.474   116845982.4341      -2024.313          47.000  
E01                                                                                                                                  28623905.982   112326344.0411       2074.388          36.000  
E13                                                                                                                                  24695095.541    96908783.3541       1584.328          33.000  
E15                                                                                                                                  23236672.986    91185695.2701       -452.973          34.000  
E21                                                                                                                                  24488859.016    96099450.4121       1027.545          41.000  
E27                                                                                                                                  23694234.823    92981266.5331      -1152.403          37.000  
E30                                                                                                                                  26554994.160   104207500.3791      -2445.618          35.000  
G02  24877209.566   130730618.1951      -3348.810          28.000  
G04                                                                  25132786.834    98626453.1591       -571.440          41.000  
G05  23089193.384   121334381.2341       1539.585          28.000  
G12  24748588.709   130054710.6681      -3962.773          34.000  
G16  24940538.624   131063389.9611       3497.236          33.000  
G18  22455605.708   118004767.0601       3118.911          40.000  
G20  24777428.743   130206314.8641       3195.650          35.000  
G25  21479859.503   112877423.5351      -2953.709          43.000    21479867.297    84291612.3311      -2206.019          35.000  
G26  22599459.919   118760903.5181       2748.443          39.000    22599466.515    88685105.7041       2052.701          37.000  
G29  20286827.621   106607997.7991       -510.933          42.000  
G31  21881692.619   114989070.2181      -1443.871          46.000  
R07  24615505.140                       -3143.164          32.000  
R08  23311517.672                        -563.708          34.000  
R09  24439788.387                        4162.349          30.000  
R14  23329250.696                       -4706.991          32.000  
R15  19691108.529                       -2359.518          38.000  
R16  20345886.436                        2180.190          32.000  
R17  19131872.081                       -1065.095          43.000  
R18  20536185.694                        2571.436          43.000  
> 2021  4 16 13  0 49.9987786  0 38
C05  39354353.748   204928447.1501       -215.100          33.000  
C08  39222435.473   204241513.8081      -1229.899          24.000  
C13  37383832.311   194667424.8681       -590.861          26.000  
C14  25865015.822   134685802.7471        129.315          23.000  
C27  21393042.305   111399184.9161       -471.249          43.000  
C28  24251579.581   126284338.7411      -2972.674          36.000  
C30  23321376.047   121440396.9501       2276.046          43.000  
C36  23346200.961   121569612.5771       1187.781          39.000  
C37  26141929.619   136127887.5771      -3765.291          31.000  
C38  38515312.004   200559336.5071      -1040.076          29.000  
C42  26778696.894   139443701.2411       -990.235          18.000  
C46  22439341.367   116847538.8001      -2023.565          48.000  
E01                                                                                                                                  28623288.710   112323919.6341       2068.984          36.000  
E13                                                                                                                                  24694601.483    96906845.1411       1586.202          33.000  
E15                                                                                                                                  23236699.068    91185797.8661       -453.336          34.000  
E21                                                                                                                                  24488507.359    96098071.0861       1025.767          41.000  
E27                                                                                                                                  23694438.681    92982066.1391      -1151.763          38.000  
E30                                                                                                                                  26555525.992   104209587.6661      -2440.338          34.000  
G02  24877757.587   130733497.6411      -3342.892          30.000  
G04                                                                  25132843.495    98626675.5311       -575.023          42.000  
G05  23088810.549   121332365.2191       1545.145          28.000  
G12  24749251.250   130058192.6981      -3958.130          32.000  
G16  24939784.646   131059423.0011       3490.927          37.000  
G18  22454919.483   118001173.9601       3122.465          39.000  
G20  24776731.726   130202645.3041       3199.368          34.000  
G25  21480331.976   112879905.6991      -2951.044          42.000    21480339.470    84293465.3931      -2204.017          36.000  
G26  22598848.343   118757684.5901       2744.643          41.000    22598853.439    88682701.1561       2049.441          37.000  
G29  20286835.116   106608037.4891       -511.836          42.000  
G31  21881879.390   114990052.1971      -1445.966          46.000  
R07  24616002.196                       -3148.504          29.000  
R08  23311541.656                        -568.882          35.000  
R09  24438921.087                        4154.241          27.000  
R14  23330043.647                       -4700.872          32.000  
R15  19691461.985                       -2356.228          33.000  
R16  20345391.179                        2174.139          33.000  
R17  19131980.905                       -1065.862          43.000  
R18  20535617.888                        2571.964          43.000  
R24  22237628.410                       -3997.493          29.000  
> 2021  4 16 13  0 50.9987786  0 36
C05  39354395.119   204928661.9001       -211.546          34.000  
C13  37383946.832   194668021.2881       -590.204          26.000  
C14  25864990.939   134685673.7561        126.756          24.000  
C27  21393132.543   111399654.4681       -471.579          42.000  
C28  24252156.681   126287344.0411      -2973.206          38.000  
C30  23320938.350   121438121.3011       2274.834          43.000  
C36  23345972.819   121568426.0001       1184.559          39.000  
C37  26142651.819   136131648.1531      -3759.996          32.000  
C38  38515513.765   200560386.7281      -1040.103          32.000  
C46  22439729.299   116849558.1741      -2023.216          47.000  
E01                                                                                                                                  28622762.274   112321852.2771       2065.616          35.000  
E13                                                                                                                                  24694196.763    96905259.5531       1585.351          33.000  
E15                                                                                                                                  23236815.088    91186252.7721       -452.089          35.000  
E21                                                                                                                                  24488246.240    96097046.7371       1023.474          41.000  
E27                                                                                                                                  23694732.478    92983219.4511      -1150.815          38.000  
E30                                                                                                                                  26556146.562   104212022.4561      -2436.481          34.000  
G02  24878394.946   130736847.5891      -3343.624          31.000  
G04                                                                  25132990.393    98627252.5291       -579.098          43.000  
G05  23088517.652   121330816.5071       1553.165          29.000  
G12  24750002.230   130062139.3531      -3953.605          33.000  
G16  24939122.105   131055934.2501       3486.972          38.000  
G18  22454327.992   117998050.4791       3124.525          40.000  
G20  24776121.648   130199444.2791       3203.058          36.000  
G25  21480892.887   112882853.6561      -2948.237          42.000    21480899.783    84295664.4461      -2202.281          35.000  
G26  22598326.404   118754940.9941       2741.340          42.000    22598332.100    88680652.8081       2047.506          36.000  
G29  20286931.649   106608545.3061       -512.006          43.000  
G31  21882154.899   114991499.5811      -1447.312          45.000  
R07  24616591.588                       -3155.595          29.000  
R08  23311653.178                        -574.162          33.000  
R09  24438139.228                        4153.706          29.000  
R14  23330924.737                       -4685.902          29.000  
R15  19691906.277                       -2356.968          34.000  
R16  20344984.660                        2171.093          32.000  
R17  19132179.068                       -1067.139          42.000  
R18  20535140.318                        2569.294          43.000  
R24  22238377.292                       -4001.153          28.000  
> 2021  4 16 13  0 51.9987784  0 31
C05  39354375.932   204928562.1871       -203.810          33.000  
C14  25864909.696   134685235.0501        125.959          22.000  
C27  21393163.421   111399814.9301       -472.059          43.000  
C28  24252663.930   126289985.3241      -2972.193          37.000  
C30  23320443.393   121435534.4161       2273.760          41.000  
C36  23345685.019   121566930.8061       1181.466          40.000  
C38  38515655.267   200561123.6131      -1042.077          30.000  
C46  22440058.171   116851270.8871      -2022.786          48.000  
E01                                                                                                                                  28622176.180   112319552.8841       2063.301          35.000  
E13                                                                                                                                  24693731.186    96903437.6921       1587.340          32.000  
E15                                                                                                                                  23236870.249    91186469.6151       -451.925          34.000  
E21                                                                                                                                  24487925.762    96095788.6611       1021.973          41.000  
E27                                                                                                                                  23694966.016    92984135.2311      -1149.928          38.000  
E30                                                                                                                                  26556707.174   104214222.1641      -2433.944          34.000  
G04  25133075.534   132075202.5781       -782.288          35.000    25133078.232    98627596.3071       -582.084          41.000  
G12  24750693.551   130065772.2801      -3951.607          36.000  
G16  24938400.205   131052133.4071       3484.290          36.000  
G18  22453673.545   117994610.4381       3125.272          40.000  
G20  24775452.211   130195922.9251       3209.710          36.000  
G25  21481391.442   112885473.0111      -2945.417          43.000    21481401.036    84297630.6941      -2199.634          36.000  
G26  22597745.706   118751886.6011       2737.487          42.000    22597751.402    88678371.8321       2044.156          37.000  
G29  20286969.423   106608743.6361       -512.366          43.000  
G31  21882370.150   114992630.8141      -1449.272          45.000  
R01  23357602.069                        2032.128          29.000  
R07  24617118.623                       -3163.508          27.000  
R08  23311704.443                        -580.684          29.000  
R09  24437299.510                        4150.040          29.000  
R14  23331744.669                       -4682.171          30.000  
R16  20344519.382                        2167.315          31.000  
R17  19132318.472                       -1068.220          43.000  
R18  20534594.396                        2571.768          43.000  
> 2021  4 16 13  0 52.9987784  0 34
C05  39354416.404   204928772.8551       -198.875          33.000  
C13  37384119.513   194668920.4651       -592.180          27.000  
C14  25864887.511   134685109.5061        125.344          23.000  
C27  21393254.258   111400287.9521       -472.539          43.000  
C28  24253231.437   126292940.4361      -2971.692          38.000  
C30  23320006.895   121433260.8221       2273.482          44.000  
C36  23345460.474   121565750.4221       1179.282          41.000  
C37  26144039.558   136138874.3851      -3735.031          25.000  
C38  38515854.029   200562159.1251      -1041.888          29.000  
C46  22440444.903   116853284.7111      -2022.776          47.000  
E01                                                                                                                                  28621650.943   112317490.9861       2059.926          35.000  
E13                                                                                                                                  24693326.766    96901850.9601       1586.430          32.000  
E15                                                                                                                                  23236984.770    91186919.0221       -450.898          34.000  
E21                                                                                                                                  24487665.542    96094767.6801       1020.004          41.000  
E27                                                                                                                                  23695258.614    92985284.1491      -1149.782          38.000  
E30                                                                                                                                  26557327.445   104216656.2911      -2432.900          33.000  
G02  24879612.703   130743246.9081      -3350.716          31.000  
G04  25133224.531   132075985.4511       -785.667          32.000    25133227.229    98628181.5101       -583.810          41.000  
G16  24937734.666   131048652.1851       3479.651          36.000  
G18  22453078.457   117991484.5281       3127.575          40.000  
G20  24774840.635   130192710.6851       3214.623          34.000  
G25  21481952.953   112888423.9171      -2944.461          43.000    21481961.348    84299830.3221      -2197.699          34.000  
G26  22597222.269   118749150.1901       2735.740          43.000    22597230.963    88676328.5001       2042.643          38.000  
G29  20287066.556   106609254.2201       -512.792          43.000  
G31  21882644.161   114994070.8571      -1451.030          46.000  
R01  23357228.827                        2031.416          30.000  
R07  24617704.718                       -3165.299          28.000  
R08  23311815.666                        -587.839          29.000  
R09  24436516.452                        4148.118          29.000  
R15  19692732.505                       -2349.142          32.000  
R16  20344114.962                        2165.018          29.000  
R17  19132520.232                       -1068.461          43.000  
R18  20534110.531                        2564.770          43.000  
R24  22239826.788                       -4005.981          28.000  
> 2021  4 16 13  0 53.9987781  0 34
C05  39354365.140   204928506.0801       -196.173          33.000  
C08  39223249.409   204245752.0521      -1238.597          25.000  
C13  37384144.096   194669048.2651       -592.071          28.000  
C14  25864772.690   134684515.8781        124.147          22.000  
C27  21393255.757   111400295.8201       -472.607          43.000  
C28  24253711.405   126295439.6941      -2971.222          36.000  
C30  23319481.359   121430519.3431       2272.650          43.000  
C36  23345142.694   121564103.4191       1177.666          38.000  
C37  26144675.418   136142185.4061      -3726.409          26.000  
C38  38515964.353   200562732.7581      -1042.842          30.000  
C46  22440744.996   116854847.1891      -2022.981          47.000  
E01                                                                                                                                  28621036.369   112315078.6251       2058.481          36.000  
E13                                                                                                                                  24692833.607    96899910.5401       1587.550          32.000  
E15                                                                                                                                  23237009.353    91187014.9511       -451.201          33.000  
E21                                                                                                                                  24487315.984    96093394.9751       1018.452          40.000  
E27                                                                                                                                  23695461.873    92986081.6181      -1148.586          38.000  
E30                                                                                                                                  26557857.778   104218737.7891      -2430.961          33.000  
G04  25133283.890   132076298.0041       -788.595          34.000    25133286.288    98628412.9611       -586.918          43.000  
G16  24936981.887   131044702.0561       3475.712          40.000  
G18  22452393.431   117987884.8001       3127.282          38.000  
G20  24774139.420   130189021.1311       3218.516          34.000  
G25  21482423.927   112890898.7171      -2942.916          42.000    21482431.722    84301675.3361      -2196.478          35.000  
G26  22596615.189   118745942.7841       2733.387          41.000    22596620.285    88673933.9961       2040.593          38.000  
G29  20287074.950   106609298.0031       -514.003          44.000  
G31  21882830.032   114995047.3121      -1452.633          46.000  
R01  23356756.954                        2032.086          28.000  
R08  23311838.450                        -588.003          30.000  
R09  24435645.555                        4146.002          30.000  
R14  23333419.610                       -4678.789          33.000  
R15  19693085.361                       -2349.701          32.000  
R16  20343620.005                        2161.591          33.000  
R17  19132630.855                       -1069.062          43.000  
R18  20533544.823                        2568.966          43.000  
R24  22240486.931                       -4007.671          29.000  
> 2021  4 16 13  0 54.9987779  0 33
C05  39354344.754   204928400.3681       -193.021          34.000  
C14  25864688.749   134684080.1331        123.548          21.000  
C27  21393285.736   111400452.1781       -472.450          43.000  
C28  24254222.251   126298099.6531      -2971.121          37.000  
C30  23318986.102   121427934.5571       2272.021          44.000  
C36  23344862.088   121562615.5171       1174.919          41.000  
C37  26145344.555   136145669.2651      -3719.707          27.000  
C38  38516104.056   200563460.7071      -1043.367          31.000  
C46  22441073.568   116856558.0371      -2023.074          48.000  
E01                                                                                                                                  28620451.774   112312785.7071       2056.648          38.000  
E13                                                                                                                                  24692370.128    96898087.9011       1587.095          33.000  
E15                                                                                                                                  23237064.515    91187231.8541       -451.213          34.000  
E21                                                                                                                                  24486997.005    96092141.8281       1017.785          41.000  
E27                                                                                                                                  23695695.112    92986997.0841      -1148.977          38.000  
E30                                                                                                                                  26558417.190   104220933.1521      -2428.414          34.000  
G02  24880739.622   130749169.0601      -3352.022          30.000  
G04                                                                  25133375.926    98628764.9151       -587.966          40.000  
G05  23087136.808   121323723.6161       1554.512          29.000  
G16  24936261.186   131040911.9751       3473.633          41.000  
G18  22451734.188   117984441.9551       3127.472          38.000  
G20  24773467.885   130185485.7821       3221.281          34.000  
G25  21482924.581   112893530.0111      -2941.587          42.000    21482932.675    84303641.5131      -2196.450          37.000  
G26  22596033.292   118742895.5431       2730.935          42.000    22596040.786    88671658.2841       2039.223          38.000  
G29  20287113.324   106609499.8191       -514.258          42.000  
G31  21883047.082   114996188.3921      -1453.973          46.000  
R08  23311890.314                        -590.299          31.000  
R09  24434801.639                        4138.974          28.000  
R14  23334240.142                       -4682.332          34.000  
R15  19693465.198                       -2355.289          37.000  
R16  20343155.027                        2159.966          30.000  
R17  19132770.259                       -1070.594          44.000  
R18  20532992.005                        2565.947          44.000  
R24  22241174.056                       -4008.751          31.000  
> 2021  4 16 13  0 55.9987779  0 32
C05  39354384.027   204928604.8801       -192.171          35.000  
C13  37384317.376   194669950.6581       -595.997          27.000  
C14  25864664.465   134683953.2411        128.057          16.000  
C27  21393375.974   111400921.7651       -472.669          43.000  
C28  24254794.855   126301081.2851      -2971.925          41.000  
C30  23318548.105   121425663.1171       2270.920          45.000  
C36  23344636.644   121561441.8141       1171.839          42.000  
C38  38516306.116   200564512.8851      -1044.756          32.000  
C46  22441462.099   116858581.9021      -2022.849          48.000  
E01                                                                                                                                  28619927.437   112310730.2771       2054.625          37.000  
E13                                                                                                                                  24691966.008    96896500.7231       1587.282          33.000  
E15                                                                                                                                  23237179.935    91187684.2821       -451.106          32.000  
E21                                                                                                                                  24486737.384    96091124.9411       1016.316          41.000  
E27                                                                                                                                  23695987.409    92988143.6271      -1147.185          37.000  
E30                                                                                                                                  26559036.861   104223364.8611      -2427.638          34.000  
G04  25133523.124   132077554.5261       -796.271          32.000    25133526.422    98629355.9301       -591.954          38.000  
G12  24753547.276   130080768.8131      -3937.965          37.000  
G16  24935601.043   131037439.4531       3470.809          43.000  
G18  22451141.198   117981313.6391       3129.210          40.000  
G20  24772855.709   130182264.1411       3222.180          36.000  
G25  21483484.293   112896471.0321      -2940.083          43.000    21483492.388    84305838.2151      -2195.082          36.000  
G26  22595512.852   118740166.7161       2727.070          41.000    22595521.846    88669620.2231       2036.948          38.000  
G29  20287210.157   106610008.1841       -514.770          43.000  
G31  21883327.987   114997664.3391      -1456.025          46.000  
R08  23312003.336                        -590.729          31.000  
R09  24434026.975                        4133.943          27.000  
R14  23335120.033                       -4683.034          36.000  
R15  19693909.490                       -2356.702          35.000  
R16  20342748.508                        2157.147          30.000  
R17  19132967.822                       -1071.384          43.000  
R18  20532501.845                        2565.835          43.000  
R24  22241925.036                       -4007.523          29.000  
> 2021  4 16 13  0 56.9987776  0 28
C05  39354331.563   204928331.0731       -191.071          34.000  
C13  37384345.256   194670095.7751       -597.902          29.000  
C27  21393375.374   111400919.0171       -472.645          43.000  
C28  24255272.125   126303566.2881      -2970.556          33.000  
C30  23318020.470   121422924.0811       2270.310          44.000  
C36  23344323.361   121559802.6571       1169.829          42.000  
C46  22441759.193   116860128.3761      -2022.968          48.000  
E01                                                                                                                                  28619313.761   112308323.5681       2053.231          38.000  
E13                                                                                                                                  24691471.350    96894559.7621       1588.951          33.000  
E15                                                                                                                                  23237205.417    91187785.0051       -451.616          34.000  
E21                                                                                                                                  24486388.126    96089756.6611       1014.812          41.000  
E27                                                                                                                                  23696189.170    92988935.9011      -1147.569          38.000  
E30                                                                                                                                  26559565.096   104225437.7751      -2424.759          34.000  
G04  25133586.380   132077887.3441       -802.584          31.000    25133587.579    98629596.0151       -593.942          41.000  
G12  24754209.517   130084248.4421      -3937.022          38.000  
G16  24934851.561   131033496.6431       3469.368          34.000  
G18  22450457.072   117977711.5231       3129.885          41.000  
G20  24772153.295   130178567.9101       3224.166          36.000  
G25  21483953.768   112898938.4341      -2938.075          44.000    21483961.263    84307677.8411      -2194.597          35.000  
G26  22594903.674   118736968.3061       2725.118          40.000    22594912.368    88667231.3841       2035.043          37.000  
G29  20287218.851   106610054.3701       -515.018          44.000  
G31  21883515.957   114998652.2531      -1457.036          46.000  
R07  24619842.837                       -3177.116          28.000  
R08  23312026.420                        -590.331          31.000  
R14  23335910.285                       -4683.353          37.000  
R15  19694261.147                       -2356.181          37.000  
R17  19133077.846                       -1072.464          43.000  
R18  20531945.430                        2574.070          42.000  
> 2021  4 16 13  0 57.9987776  0 32
C05  39354369.037   204928526.1971       -191.736          33.000  
C13  37384460.377   194670694.9731       -598.207          29.000  
C27  21393467.111   111401396.6531       -472.961          43.000  
C28  24255838.732   126306517.1901      -2969.731          33.000  
C30  23317583.973   121420653.8211       2270.089          43.000  
C36  23344098.817   121558632.7171       1169.983          42.000  
C37  26147434.108   136156550.2641      -3733.090          27.000  
C46  22442148.024   116862153.2341      -2022.992          48.000  
E01                                                                                                                                  28618791.523   112306270.1081       2053.986          37.000  
E13                                                                                                                                  24691066.330    96892970.9721       1588.360          33.000  
E15                                                                                                                                  23237320.538    91188236.5121       -451.939          34.000  
E21                                                                                                                                  24486129.705    96088741.8011       1014.740          41.000  
E27                                                                                                                                  23696481.767    92990083.7411      -1148.177          37.000  
E30                                                                                                                                  26560182.368   104227860.1341      -2424.440          34.000  
G02  24882559.662   130758733.0591      -3353.070          32.000  
G04  25133737.775   132078683.2471       -800.879          33.000    25133738.675    98630188.0011       -593.867          40.000  
G12  24754965.894   130088222.9781      -3937.508          37.000  
G16  24934192.018   131030027.6351       3468.622          44.000  
G18  22449862.584   117974581.9711       3129.137          41.000  
G20  24771539.620   130175343.5711       3224.572          37.000  
G25  21484512.581   112901875.1381      -2939.581          43.000    21484520.076    84309870.6851      -2195.096          37.000  
G26  22594385.632   118734242.8781       2725.452          41.000    22594392.827    88665196.4501       2035.266          38.000  
G29  20287316.283   106610565.6741       -515.452          43.000  
G31  21883790.567   115000095.4491      -1457.218          46.000  
R07  24620436.726                       -3176.877          29.000  
R09  24432396.404                        4133.049          26.000  
R14  23336788.677                       -4683.005          36.000  
R15  19694704.240                       -2356.518          33.000  
R16  20341850.330                        2152.795          31.000  
R17  19133281.105                       -1072.267          44.000  
R18  20531469.959                        2564.658          43.000  
R24  22243339.457                       -4009.657          30.000  
> 2021  4 16 13  0 58.9987773  0 30
C05  39354317.173   204928256.2701       -193.003          34.000  
C08  39224224.335   204250828.4311      -1239.280          20.000  
C13  37384484.960   194670823.5361       -598.404          27.000  
C27  21393468.610   111401404.1241       -474.307          42.000  
C28  24256318.700   126309016.5361      -2969.960          36.000  
C30  23317056.338   121417915.2481       2270.392          43.000  
C36  23343782.536   121556994.0661       1169.704          40.000  
C46  22442447.817   116863714.4411      -2024.043          49.000  
E01                                                                                                                                  28618177.848   112303863.6951       2052.411          36.000  
E13                                                                                                                                  24690571.973    96891029.8941       1588.202          32.000  
E15                                                                                                                                  23237346.020    91188336.2901       -452.013          33.000  
E21                                                                                                                                  24485780.747    96087373.7381       1014.355          40.000  
E27                                                                                                                                  23696685.026    92990881.4111      -1148.693          37.000  
E30                                                                                                                                  26560710.603   104229932.9001      -2425.947          33.000  
G02  24883107.383   130761611.7061      -3352.284          29.000  
G04  25133798.933   132079004.0071       -800.102          34.000    25133800.732    98630431.8421       -593.876          40.000  
G05  23085797.935   121316585.1761       1547.724          31.000  
G12  24755626.636   130091695.7111      -3938.420          37.000  
G16  24933441.038   131026086.3301       3468.684          45.000  
G18  22449178.457   117970980.8551       3128.480          41.000  
G20  24770834.808   130171646.8101       3222.902          37.000  
G25  21484981.157   112904337.6341      -2940.355          44.000    21484989.851    84311714.6081      -2195.128          37.000  
G26  22593775.854   118731044.2291       2726.272          41.000    22593783.649    88662807.7611       2035.341          37.000  
G29  20287325.577   106610614.7561       -516.062          44.000  
G31  21883973.440   115001056.4291      -1457.945          45.000  
R09  24431535.100                        4135.282          27.000  
R15  19695059.194                       -2358.320          33.000  
R16  20341361.069                        2153.684          32.000  
R17  19133391.429                       -1072.867          43.000  
R18  20530906.949                        2568.367          44.000  
> 2021  4 16 13  0 59.9987771  0 32
C05  39354296.188   204928147.5091       -197.046          34.000  
C08  39224405.709   204251773.4731      -1241.360          22.000  
C13  37384538.023   194671099.4471       -599.409          28.000  
C27  21393500.088   111401568.0481       -474.654          43.000  
C30  23316560.481   121415332.5671       2270.256          43.000  
C36  23343495.334   121555511.1291       1171.715          40.000  
C46  22442776.389   116865425.8181      -2025.248          48.000  
E01                                                                                                                                  28617594.452   112301573.6891       2055.748          35.000  
E13                                                                                                                                  24690106.695    96889206.7881       1586.895          33.000  
E15                                                                                                                                  23237401.482    91188554.4181       -453.071          33.000  
E21                                                                                                                                  24485462.667    96086123.2411       1016.157          41.000  
E27                                                                                                                                  23696917.665    92991794.3221      -1149.915          38.000  
E30                                                                                                                                  26561270.015   104232127.6941      -2428.539          33.000  
G02  24883685.383   130764649.1601      -3352.435          27.000  
G04  25133889.770   132079481.6901       -797.344          34.000    25133891.269    98630787.7861       -591.961          40.000  
G05  23085445.679   121314725.3321       1542.551          27.000  
G12  24756314.060   130095307.6311      -3943.426          39.000  
G16  24932720.637   131022300.8101       3472.146          41.000  
G18  22448522.511   117967538.0541       3126.235          40.000  
G20  24770162.973   130168110.5181       3220.394          37.000  
G25  21485480.311   112906960.9991      -2942.685          44.000    21485490.205    84313677.5391      -2198.313          38.000  
G26  22593196.056   118728002.1491       2728.220          41.000    22593205.349    88660536.4431       2037.021          36.000  
G29  20287363.351   106610813.7841       -516.161          43.000  
G31  21884189.291   115002190.1661      -1458.072          45.000  
R01  23354179.938                        2024.037          31.000  
R08  23312212.291                        -595.229          29.000  
R09  24430696.880                        4135.455          28.000  
R14  23338389.269                       -4682.478          32.000  
R15  19695439.031                       -2359.996          37.000  
R16  20340899.688                        2153.236          32.000  
R17  19133527.235                       -1073.663          44.000  
R18  20530344.238                        2562.869          42.000  
> 2021  4 16 13  1  0.9987771  0 32
C05  39354335.460   204928351.1301       -201.289          34.000  
C08  39224646.442   204253026.6651      -1241.046          23.000  
C27  21393590.625   111402039.7061       -475.287          43.000  
C30  23316129.979   121413062.3571       2270.538          44.000  
C36  23343272.289   121554338.0071       1174.759          40.000  
C37  26149457.707   136167088.3081      -3741.964          26.000  
C42  26780394.918   139452543.4191       -999.643          25.000  
C46  22443167.618   116867462.7931      -2026.716          49.000  
E01                                                                                                                                  28617069.815   112299516.6351       2057.462          34.000  
E13                                                                                                                                  24689702.275    96887620.5891       1585.509          32.000  
E15                                                                                                                                  23237516.902    91189006.9351       -454.485          33.000  
E21                                                                                                                                  24485203.646    96085106.4351       1017.612          41.000  
E27                                                                                                                                  23697211.462    92992947.1561      -1151.981          38.000  
E30                                                                                                                                  26561889.686   104234560.3141      -2430.795          34.000  
G02  24884322.442   130767996.0821      -3353.251          27.000  
G04                                                                  25134041.765    98631378.2561       -589.497          41.000  
G05  23085153.081   121313184.3161       1539.400          29.000  
G12  24757063.841   130099248.4481      -3946.175          36.000  
G16  24932057.496   131018826.2061       3476.822          42.000  
G18  22447926.524   117964412.6021       3123.813          41.000  
G20  24769551.396   130164891.6221       3216.193          35.000  
G25  21486041.823   112909911.5411      -2946.573          42.000    21486050.217    84315875.8641      -2199.473          35.000  
G26  22592676.216   118725272.8191       2731.193          38.000    22592686.708    88658498.0431       2039.716          38.000  
G29  20287461.982   106611331.3031       -517.006          44.000  
G31  21884471.096   115003671.6411      -1456.737          45.000  
R07  24622073.293                       -3171.355          28.000  
R09  24429922.517                        4137.994          27.000  
R14  23339264.663                       -4687.769          35.000  
R15  19695877.927                       -2363.070          36.000  
R16  20340491.970                        2154.769          31.000  
R17  19133729.894                       -1073.830          44.000  
R18  20529864.870                        2555.263          44.000  
> 2021  4 16 13  1  1.9987768  0 34
C05  39354285.395   204928090.7341       -205.444          33.000  
C13  37384683.722   194671858.1031       -603.460          25.000  
C14  25864184.198   134681459.5461        130.490          19.000  
C27  21393591.825   111402045.7801       -475.370          43.000  
C30  23315606.242   121410323.2691       2271.125          44.000  
C36  23342960.205   121552694.0941       1176.548          43.000  
C37  26150090.269   136170381.3101      -3743.824          27.000  
C42  26780501.644   139453099.1351       -998.702          25.000  
C46  22443467.111   116869022.7621      -2028.188          49.000  
E01                                                                                                                                  28616454.940   112297104.5231       2061.519          35.000  
E13                                                                                                                                  24689207.917    96885682.4991       1584.987          32.000  
E15                                                                                                                                  23237542.684    91189108.1841       -455.665          34.000  
E21                                                                                                                                  24484854.388    96083734.7931       1018.860          40.000  
E27                                                                                                                                  23697414.721    92993744.9821      -1152.117          38.000  
E30                                                                                                                                  26562420.319   104236641.7911      -2433.553          34.000  
G02  24884869.563   130770871.3491      -3354.537          28.000  
G04                                                                  25134102.023    98631613.8441       -586.830          41.000  
G12  24757724.584   130102719.9861      -3949.862          37.000  
G16  24931305.017   131014875.7101       3479.865          40.000  
G18  22447246.295   117960817.1751       3122.203          40.000  
G20  24768849.882   130161204.6601       3211.815          36.000  
G25  21486513.097   112912387.5081      -2949.072          43.000    21486520.591    84317721.0291      -2200.712          35.000  
G26  22592070.035   118722067.0671       2734.655          40.000    22592076.631    88656104.0041       2042.242          38.000  
G29  20287469.777   106611372.5821       -516.680          44.000  
G31  21884660.565   115004667.2681      -1456.199          47.000  
R01  23353343.816                        2019.085          28.000  
R07  24622567.951                       -3164.773          30.000  
R09  24429054.318                        4145.184          30.000  
R14  23340054.616                       -4693.128          34.000  
R15  19696230.483                       -2366.083          32.000  
R16  20339995.514                        2158.809          29.000  
R17  19133841.417                       -1074.550          44.000  
R18  20529302.460                        2556.843          37.000  
R24  22246113.736                       -4008.112          25.000  
> 2021  4 16 13  1  2.9987768  0 32
C05  39354326.767   204928306.1791       -210.120          34.000  
C08  39225042.468   204255089.3481      -1243.584          21.000  
C13  37384797.943   194672452.7911       -604.812          29.000  
C27  21393683.561   111402523.9731       -476.847          43.000  
C30  23315176.039   121408052.1321       2271.507          44.000  
C36  23342732.962   121551516.8691       1178.174          43.000  
C42  26780697.709   139454120.2141       -997.073          33.000  
C46  22443855.342   116871043.4781      -2029.449          49.000  
E01                                                                                                                                  28615929.105   112295041.5031       2064.593          38.000  
E13                                                                                                                                  24688802.897    96884099.1141       1582.370          31.000  
E15                                                                                                                                  23237658.104    91189560.6961       -455.700          33.000  
E21                                                                                                                                  24484595.068    96082715.1081       1020.438          41.000  
E27                                                                                                                                  23697707.918    92994895.8151      -1153.443          38.000  
E30                                                                                                                                  26563041.489   104239079.4871      -2437.946          34.000  
G04                                                                  25134250.720    98632197.5551       -584.612          40.000  
G12  24758475.264   130106665.6111      -3954.214          36.000  
G16  24930643.375   131011393.9701       3482.884          40.000  
G18  22446656.003   117957973.6501       3118.874          40.000  
G20  24768239.205   130157995.1451       3206.748          33.000  
G25  21487074.908   112915340.4981      -2952.680          43.000    21487082.103    84319924.6241      -2204.258          35.000  
G26  22591552.294   118719331.1851       2737.176          43.000    22591556.191    88654061.0041       2044.072          38.000  
G29  20287567.209   106611884.8721       -517.726          44.000  
G31  21884938.772   115006129.3561      -1455.834          47.000  
R01  23352970.575                        2017.819          30.000  
R07  24623154.045                       -3159.603          29.000  
R09  24428275.157                        4151.233          31.000  
R14  23340939.004                       -4697.412          34.000  
R15  19696670.279                       -2369.098          34.000  
R16  20339588.096                        2161.748          31.000  
R17  19134042.278                       -1074.390          44.000  
R18  20528828.488                        2563.249          44.000  
R24  22246873.710                       -4005.341          26.000  
> 2021  4 16 13  1  3.9987766  0 31
C05  39354309.379   204928215.5801       -215.021          34.000  
C08  39225225.042   204256039.9861      -1240.658          19.000  
C13  37384850.706   194672727.3551       -603.400          29.000  
C27  21393716.238   111402693.8391       -477.699          43.000  
C30  23314679.583   121405468.1161       2271.345          45.000  
C36  23342443.663   121550025.4471       1179.654          40.000  
C42  26780829.617   139454807.0741       -997.653          26.000  
C46  22444182.716   116872748.3101      -2030.712          48.000  
E01                                                                                                                                  28615342.411   112292739.8831       2067.979          37.000  
E13                                                                                                                                  24688340.617    96882281.4761       1581.615          32.000  
E15                                                                                                                                  23237714.465    91189782.3131       -456.289          34.000  
E21                                                                                                                                  24484274.889    96081458.4771       1021.804          41.000  
E27                                                                                                                                  23697942.056    92995814.5801      -1156.974          37.000  
E30                                                                                                                                  26563603.300   104241284.1331      -2440.380          33.000  
G02  24886093.916   130777305.3321      -3368.316          22.000  
G04                                                                  25134339.459    98632545.8011       -581.643          41.000  
G12  24759168.085   130110305.5131      -3956.550          37.000  
G16  24929919.676   131007592.1931       3487.974          39.000  
G18  22445998.858   117954540.0441       3118.421          40.000  
G20  24767569.768   130154475.3321       3202.519          35.000  
G25  21487577.360   112917981.0791      -2954.690          43.000    21487584.555    84321896.5451      -2206.875          34.000  
G26  22590970.397   118716277.9431       2739.602          41.000    22590974.594    88651780.5561       2045.796          37.000  
G29  20287606.782   106612092.5921       -517.731          44.000  
G31  21885154.623   115007263.4821      -1455.195          47.000  
R07  24623680.481                       -3156.731          29.000  
R09  24427434.239                        4156.476          30.000  
R14  23341763.433                       -4702.142          33.000  
R15  19697051.615                       -2370.949          40.000  
R16  20339123.418                        2163.645          33.000  
R17  19134180.183                       -1075.157          44.000  
R18  20528278.069                        2574.530          41.000  
> 2021  4 16 13  1  4.9987766  0 32
C05  39354352.848   204928441.6111       -218.765          33.000  
C08  39225469.672   204257313.2181      -1239.358          18.000  
C13  37384964.328   194673319.3721       -603.072          28.000  
C14  25864051.390   134680737.2211        142.728          18.000  
C27  21393806.176   111403162.2611       -477.839          43.000  
C30  23314227.796   121403196.1981       2271.980          44.000  
C36  23342211.323   121548844.5681       1180.660          40.000  
C46  22444573.045   116874781.3471      -2031.616          48.000  
E01                                                                                                                                  28614815.376   112290671.9131       2069.784          32.000  
E13                                                                                                                                  24687938.596    96880700.8571       1580.025          32.000  
E15                                                                                                                                  23237830.785    91190238.9601       -457.897          33.000  
E21                                                                                                                                  24484013.770    96080436.0071       1023.000          41.000  
E27                                                                                                                                  23698237.352    92996972.6461      -1156.393          37.000  
E30                                                                                                                                  26564225.969   104243728.2301      -2443.983          34.000  
G04  25134484.858   132082608.4181       -775.304          36.000    25134487.257    98633125.7991       -580.574          39.000  
G05  23083834.894   121306261.6111       1528.626          20.000  
G12  24759925.960   130114288.5431      -3960.195          36.000  
G16  24929257.734   131004103.5941       3489.154          38.000  
G18  22445399.573   117951422.6381       3114.864          40.000  
G25  21488139.471   112920934.5771      -2958.158          43.000    21488146.666    84324102.3171      -2208.867          35.000  
G26  22590448.158   118713537.3731       2741.993          41.000    22590453.255    88649733.9441       2047.302          38.000  
G29  20287706.313   106612615.3851       -517.854          44.000  
G31  21885428.033   115008700.4591      -1455.375          45.000  
R01  23352180.322                        2019.686          21.000  
R07  24624266.875                       -3152.447          32.000  
R09  24426652.380                        4160.817          31.000  
R14  23342643.324                       -4707.458          33.000  
R15  19697496.207                       -2372.527          36.000  
R16  20338719.897                        2165.562          29.000  
R17  19134383.742                       -1074.898          43.000  
R18  20527795.103                        2569.234          41.000  
R24  22248330.701                       -4000.329          24.000  
> 2021  4 16 13  1  5.9987763  0 31
C05  39354306.381   204928200.3291       -222.682          34.000  
C13  37384987.712   194673441.3211       -601.659          26.000  
C27  21393808.874   111403176.8081       -478.066          42.000  
C30  23313707.956   121400456.0551       2271.370          43.000  
C36  23341895.642   121547194.8431       1182.197          41.000  
C38  38517883.324   200572725.9951      -1045.843          21.000  
C46  22444875.536   116876356.1631      -2032.614          48.000  
E01                                                                                                                                  28614197.203   112288249.4031       2069.765          27.000  
E13                                                                                                                                  24687446.037    96878767.2071       1581.224          32.000  
E15                                                                                                                                  23237857.166    91190341.8731       -459.033          33.000  
E21                                                                                                                                  24483663.313    96079060.1881       1022.923          40.000  
E27                                                                                                                                  23698443.309    92997780.7501      -1157.628          37.000  
E30                                                                                                                                  26564759.600   104245821.9211      -2445.790          33.000  
G04  25134541.219   132082905.5361       -772.631          38.000    25134545.416    98633354.2341       -578.267          40.000  
G05  23083458.654   121304261.7381       1527.400          24.000  
G12  24760592.399   130117790.8311      -3963.448          36.000  
G16  24928501.957   131000139.8041       3492.268          40.000  
G18  22444717.545   117947835.8411       3114.074          38.000  
G20  24766262.673   130147603.6771       3197.048          32.000  
G25  21488612.543   112923420.6611      -2959.806          42.000    21488619.738    84325958.3491      -2211.092          34.000  
G26  22589833.883   118710321.6641       2744.224          42.000    22589841.378    88647332.5511       2049.226          38.000  
G29  20287715.007   106612661.8461       -518.285          44.000  
G31  21885617.802   115009697.4771      -1454.663          45.000  
R07  24624763.331                       -3149.858          33.000  
R09  24425776.087                        4167.276          33.000  
R14  23343436.575                       -4709.382          34.000  
R15  19697849.962                       -2374.109          38.000  
R16  20338223.441                        2167.388          30.000  
R17  19134494.365                       -1075.437          43.000  
R18  20527225.198                        2559.763          43.000  
R24  22248993.842                       -3989.591          25.000  
> 2021  4 16 13  1  6.9987763  0 30
C05  39354350.450   204928429.3341       -226.463          35.000  
C13  37385097.735   194674013.5021       -602.455          28.000  
C27  21393901.210   111403657.4841       -479.341          42.000  
C30  23313270.559   121398184.3851       2271.455          45.000  
C36  23341669.299   121546011.2831       1183.790          40.000  
C42  26781290.998   139457209.7331       -992.048          27.000  
C46  22445266.166   116878390.5731      -2034.211          48.000  
E01                                                                                                                                  28613668.669   112286177.8381       2072.657          28.000  
E13                                                                                                                                  24687043.415    96877186.6921       1579.766          32.000  
E15                                                                                                                                  23237974.085    91190800.7531       -459.162          34.000  
E21                                                                                                                                  24483402.493    96078036.1761       1024.656          42.000  
E27                                                                                                                                  23698737.705    92998936.0541      -1158.913          38.000  
E30                                                                                                                                  26565382.568   104248266.4551      -2447.474          34.000  
G04  25134686.619   132083668.7261       -772.381          36.000    25134691.715    98633928.4231       -576.280          41.000  
G12  24761346.377   130121752.5231      -3964.189          35.000  
G16  24927838.217   130996647.4521       3491.021          38.000  
G18  22444126.954   117944722.5571       3111.307          41.000  
G20  24765654.994   130144408.2071       3193.364          35.000  
G25  21489177.052   112926386.8311      -2962.726          43.000    21489183.348    84328170.1481      -2212.745          34.000  
G26  22589313.144   118707576.7361       2746.219          40.000    22589318.540    88645282.7821       2051.515          38.000  
G29  20287815.138   106613187.4231       -518.904          43.000  
G31  21885893.611   115011147.0151      -1454.190          46.000  
R07  24625346.128                       -3147.839          32.000  
R09  24424992.130                        4171.590          30.000  
R14  23344319.464                       -4712.287          35.000  
R15  19698291.557                       -2376.408          36.000  
R16  20337819.620                        2168.654          32.000  
R17  19134696.725                       -1075.894          44.000  
R18  20526754.224                        2574.577          43.000  
R24  22249749.319                       -3991.200          25.000  
> 2021  4 16 13  1  7.9987763  0 30
C05  39354394.819   204928660.2331       -231.136          34.000  
C08  39226095.939   204260574.4661      -1231.765          18.000  
C13  37385209.558   194674595.9561       -602.593          30.000  
C14  25863877.810   134679838.0351        144.112          18.000  
C27  21393992.347   111404131.8151       -479.348          43.000  
C30  23312833.761   121395912.9761       2271.368          44.000  
C36  23341442.955   121544826.7131       1185.368          41.000  
C46  22445656.495   116880422.7721      -2036.123          48.000  
E01                                                                                                                                  28613139.236   112284103.2441       2076.385          31.000  
E13                                                                                                                                  24686640.794    96875606.9721       1579.180          33.000  
E15                                                                                                                                  23238091.004    91191259.4451       -460.071          34.000  
E21                                                                                                                                  24483140.774    96077010.5851       1026.006          41.000  
E27                                                                                                                                  23699033.001    93000094.8431      -1160.114          38.000  
E30                                                                                                                                  26566006.736   104250715.6001      -2450.683          33.000  
G04  25134831.718   132084431.7551       -770.530          35.000    25134838.314    98634504.1451       -574.892          38.000  
G16  24927173.877   130993154.4291       3495.196          34.000  
G18  22443535.464   117941612.0421       3108.847          42.000  
G20  24765047.314   130141216.0291       3189.797          35.000  
G25  21489740.962   112929350.8861      -2964.708          43.000    21489748.457    84330387.7601      -2214.427          37.000  
G26  22588790.006   118704829.5511       2748.573          42.000    22588796.002    88643230.7551       2053.223          37.000  
G29  20287911.971   106613696.4181       -519.053          44.000  
G31  21886171.819   115012608.6001      -1454.693          45.000  
R01  23350965.863                        2034.276          22.000  
R07  24625933.721                       -3146.215          29.000  
R09  24424205.474                        4173.581          34.000  
R14  23345202.353                       -4715.407          36.000  
R15  19698736.748                       -2378.088          40.000  
R16  20337413.402                        2169.550          31.000  
R17  19134899.385                       -1076.231          44.000  
R18  20526276.355                        2563.438          42.000  
> 2021  4 16 13  1  8.9987761  0 33
C05  39354378.930   204928578.1771       -233.860          34.000  
C08  39226262.623   204261442.3481      -1228.004          17.000  
C13  37385261.722   194674867.4031       -601.262          27.000  
C27  21394024.125   111404297.1331       -479.886          42.000  
C30  23312337.904   121393329.0671       2271.789          42.000  
C36  23341153.955   121543327.8871       1186.974          40.000  
C37  26154926.521   136195565.4681      -3782.084          30.000  
C46  22445986.267   116882140.2561      -2036.728          48.000  
E01                                                                                                                                  28612550.743   112281790.5531       2078.731          35.000  
E13                                                                                                                                  24686178.814    96873793.4311       1577.516          32.000  
E15                                                                                                                                  23238147.665    91191482.2751       -460.405          33.000  
E21                                                                                                                                  24482819.697    96075748.7161       1026.945          40.000  
E27                                                                                                                                  23699269.837    93001024.2141      -1161.706          39.000  
E30                                                                                                                                  26566571.845   104252933.5091      -2453.367          32.000  
G02  24889161.092   130793423.8331      -3353.374          20.000  
G04  25134915.660   132084872.6121       -769.390          36.000    25134925.253    98634844.5621       -573.742          38.000  
G05  23082543.688   121299373.3391       1522.212          22.000  
G12  24762791.076   130129345.1131      -3971.173          35.000  
G16  24926449.878   130989344.0661       3496.795          35.000  
G18  22442883.115   117938188.6091       3107.138          42.000  
G20  24764379.976   130137712.2601       3186.887          35.000  
G25  21490246.412   112932006.8601      -2967.646          42.000    21490253.007    84332367.7361      -2216.807          36.000  
G26  22588206.310   118701764.8411       2749.947          41.000    22588212.906    88640941.7511       2054.309          38.000  
G29  20287950.644   106613899.5891       -519.548          44.000  
G31  21886387.369   115013740.9611      -1454.122          46.000  
R01  23350535.061                        2035.591          24.000  
R07  24626458.657                       -3144.289          29.000  
R09  24423360.060                        4173.525          29.000  
R14  23346028.881                       -4718.197          36.000  
R15  19699123.181                       -2379.123          41.000  
R16  20336949.923                        2170.607          30.000  
R17  19135038.788                       -1076.523          43.000  
R18  20525737.927                        2560.181          42.000  
> 2021  4 16 13  1  9.9987761  0 33
C05  39354424.199   204928814.0071       -235.728          34.000  
C08  39226482.971   204262590.1831      -1225.701          19.000  
C13  37385374.144   194675453.0311       -599.742          27.000  
C27  21394117.061   111404781.2151       -480.929          42.000  
C30  23311902.006   121391057.7541       2270.351          43.000  
C36  23340927.612   121542141.0201       1186.405          40.000  
C37  26155651.719   136199341.6661      -3782.346          28.000  
C46  22446378.396   116884182.6181      -2038.145          47.000  
E01                                                                                                                                  28612021.610   112279711.2241       2080.101          36.000  
E13                                                                                                                                  24685777.092    96872216.4051       1576.369          32.000  
E15                                                                                                                                  23238263.985    91191938.9031       -459.989          32.000  
E21                                                                                                                                  24482557.978    96074721.7451       1027.017          40.000  
E27                                                                                                                                  23699565.732    93002185.5261      -1161.982          37.000  
E30                                                                                                                                  26567196.013   104255383.3991      -2454.116          32.000  
G02  24889781.063   130796681.7601      -3344.143          26.000  
G04  25135059.560   132085628.7051       -766.884          37.000    25135070.653    98635415.0611       -572.906          35.000  
G12  24763546.254   130133313.2411      -3973.397          36.000  
G16  24925784.339   130985843.8531       3501.297          30.000  
G18  22442294.023   117935082.5901       3105.653          41.000  
G20  24763773.796   130134526.5121       3184.644          32.000  
G25  21490808.223   112934959.2841      -2968.767          42.000    21490818.116    84334585.8161      -2215.685          36.000  
G26  22587683.472   118699014.1301       2751.444          41.000    22587689.168    88638888.0561       2054.532          37.000  
G29  20288049.875   106614421.0891       -519.678          43.000  
G31  21886664.677   115015198.5871      -1455.349          45.000  
R01  23350161.220                        2035.000          22.000  
R07  24627044.152                       -3141.425          32.000  
R08  23312910.208                        -569.049          39.000  
R09  24422580.299                        4170.776          28.000  
R14  23346917.765                       -4720.549          34.000  
R15  19699565.974                       -2381.063          40.000  
R16  20336545.503                        2171.307          31.000  
R17  19135239.949                       -1077.167          43.000  
R18  20525265.454                        2559.496          41.000  
> 2021  4 16 13  1 10.9987758  0 31
C05  39354378.331   204928575.1881       -237.560          35.000  
C13  37385397.528   194675574.7201       -599.447          28.000  
C27  21394118.560   111404789.1511       -480.459          41.000  
C30  23311377.069   121388318.9041       2270.717          42.000  
C36  23340610.432   121540485.7011       1188.037          39.000  
C37  26156285.181   136202640.0691      -3784.306          29.000  
C46  22446680.586   116885755.8551      -2039.040          47.000  
E01                                                                                                                                  28611401.639   112277277.3911       2081.738          37.000  
E13                                                                                                                                  24685286.032    96870287.4661       1575.485          32.000  
E15                                                                                                                                  23238292.165    91192049.2601       -460.867          32.000  
E21                                                                                                                                  24482205.722    96073341.2981       1027.871          40.000  
E27                                                                                                                                  23699771.989    93002994.9981      -1164.070          37.000  
E30                                                                                                                                  26567731.442   104257484.1561      -2454.629          31.000  
G02  24890301.803   130799418.6631      -3342.497          26.000  
G04  25135118.020   132085936.3881       -764.605          37.000    25135126.114    98635632.6771       -571.740          35.000  
G12  24764210.894   130136805.8731      -3975.534          33.000  
G16  24925027.962   130981868.7191       3503.243          34.000  
G18  22441611.995   117931504.4861       3104.963          41.000  
G20  24763078.877   130130870.0271       3182.800          34.000  
G25  21491284.593   112937461.8941      -2969.945          40.000    21491293.287    84336450.0841      -2218.874          37.000  
G26  22587069.497   118695789.3451       2752.229          39.000    22587076.093    88636479.8111       2054.702          35.000  
G29  20288058.869   106614468.1681       -519.622          43.000  
G31  21886850.549   115016175.8931      -1454.900          44.000  
R07  24627536.112                       -3139.307          36.000  
R08  23312924.298                        -569.701          31.000  
R09  24421707.604                        4180.119          34.000  
R14  23347717.012                       -4722.314          36.000  
R15  19699923.327                       -2382.101          42.000  
R16  20336049.046                        2170.916          30.000  
R17  19135353.271                       -1076.838          44.000  
R18  20524706.941                        2558.803          40.000  
> 2021  4 16 13  1 11.9987758  0 29
C05  39354422.700   204928806.2991       -238.908          37.000  
C13  37385512.049   194676171.6351       -600.111          28.000  
C27  21394211.196   111405271.7451       -480.957          41.000  
C30  23310939.672   121386048.4571       2270.349          42.000  
C36  23340381.990   121539296.9531       1188.205          41.000  
C46  22447071.816   116887792.7151      -2040.608          48.000  
E01                                                                                                                                  28610870.407   112275194.9451       2082.589          37.000  
E13                                                                                                                                  24684884.910    96868711.9811       1575.405          32.000  
E15                                                                                                                                  23238409.984    91192511.3011       -461.962          32.000  
E21                                                                                                                                  24481944.303    96072313.2771       1028.104          40.000  
E27                                                                                                                                  23700068.484    93004158.9451      -1164.073          37.000  
E30                                                                                                                                  26568356.210   104259936.1781      -2456.728          30.000  
G04  25135263.419   132086700.5951       -764.718          37.000    25135271.514    98636204.0591       -570.916          35.000  
G12  24764965.771   130140773.0951      -3977.225          29.000  
G16  24924360.624   130978363.8941       3505.565          32.000  
G18  22441020.205   117928400.3121       3103.774          42.000  
G20  24762473.896   130127687.7041       3181.745          34.000  
G25  21491849.402   112940430.1531      -2972.313          42.000    21491858.696    84338669.6441      -2220.015          35.000  
G26  22586546.060   118693036.7401       2753.632          39.000    22586552.355    88634424.4061       2056.463          36.000  
G29  20288157.801   106614988.5101       -520.671          44.000  
G31  21887127.857   115017632.2991      -1455.554          44.000  
R07  24628119.508                       -3137.976          36.000  
R08  23313028.027                        -569.219          35.000  
R09  24420925.145                        4182.853          35.000  
R14  23348601.699                       -4724.044          35.000  
R15  19700371.816                       -2383.274          40.000  
R16  20335643.727                        2171.813          30.000  
R17  19135552.932                       -1077.513          44.000  
R18  20524216.780                        2564.643          42.000  
> 2021  4 16 13  1 12.9987756  0 31
C05  39354407.411   204928726.2101       -239.424          35.000  
C13  37385565.711   194676450.6051       -601.213          27.000  
C27  21394243.873   111405441.1441       -482.089          42.000  
C28  24263813.811   126348045.0661      -2978.032          40.000  
C30  23310443.516   121383465.9711       2269.146          43.000  
C36  23340093.889   121537796.7871       1187.799          40.000  
C37  26157672.320   136209863.3351      -3790.138          31.000  
C46  22447404.285   116889524.2521      -2041.391          48.000  
E01                                                                                                                                  28610281.015   112272877.8151       2081.753          36.000  
E13                                                                                                                                  24684424.129    96866902.1331       1573.929          33.000  
E15                                                                                                                                  23238467.244    91192736.5991       -462.773          32.000  
E21                                                                                                                                  24481622.326    96071050.0331       1027.611          39.000  
E27                                                                                                                                  23700304.121    93005082.9191      -1164.220          37.000  
E30                                                                                                                                  26568922.218   104262156.5481      -2456.622          27.000  
G04  25135349.460   132087152.8541       -763.981          39.000    25135357.254    98636539.8081       -570.911          37.000  
G12  24765660.990   130144426.7281      -3978.288          26.000  
G16  24923633.627   130974542.3271       3506.539          36.000  
G18  22440371.454   117924982.0501       3103.055          43.000  
G20  24761808.057   130124190.9521       3181.657          31.000  
G25  21492355.152   112943088.0781      -2971.899          42.000    21492363.546    84340649.8281      -2220.412          35.000  
G26  22585962.963   118689969.3801       2752.481          39.000    22585968.060    88632132.7231       2056.506          36.000  
G29  20288195.874   106615188.0541       -521.412          44.000  
G31  21887345.806   115018777.9331      -1456.755          45.000  
R07  24628642.945                       -3137.819          36.000  
R08  23313073.895                        -569.246          29.000  
R09  24420081.230                        4183.269          37.000  
R14  23349430.626                       -4725.051          33.000  
R15  19700755.851                       -2385.093          41.000  
R16  20335178.749                        2171.928          30.000  
R17  19135692.636                       -1078.715          44.000  
R18  20523672.057                        2530.963          40.000  
> 2021  4 16 13  1 13.9987753  0 31
C05  39354363.041   204928495.4321       -239.759          35.000  
C13  37385591.494   194676585.0501       -600.365          29.000  
C27  21394247.171   111405458.6571       -482.049          42.000  
C28  24264289.582   126350522.5941      -2977.644          40.000  
C30  23309916.780   121380727.7621       2270.139          43.000  
C36  23339775.809   121536140.9651       1186.401          40.000  
C37  26158305.182   136213159.3441      -3788.864          29.000  
C38  38519137.956   200579259.4111      -1039.861          31.000  
C46  22447705.577   116891093.6121      -2042.155          47.000  
E01                                                                                                                                  28609659.845   112270443.1131       2082.199          34.000  
E13                                                                                                                                  24683932.469    96864974.7831       1574.614          31.000  
E15                                                                                                                                  23238493.925    91192841.0651       -461.950          31.000  
E21                                                                                                                                  24481270.069    96069669.5721       1027.432          39.000  
E27                                                                                                                                  23700510.978    93005895.5741      -1162.515          37.000  
E30                                                                                                                                  26569459.146   104264263.8321      -2457.039          29.000  
G04  25135404.921   132087443.8011       -764.709          42.000    25135413.315    98636759.9451       -571.137          37.000  
G12  24766328.028   130147932.0171      -3978.435          23.000  
G16  24922877.251   130970562.9701       3506.563          33.000  
G18  22439691.825   117921406.3001       3103.521          42.000  
G20  24761112.538   130120536.7131       3181.453          31.000  
G25  21492830.923   112945588.7101      -2972.896          42.000    21492839.917    84342519.3221      -2219.060          36.000  
G26  22585349.288   118686744.3721       2752.064          40.000    22585354.385    88629723.9491       2055.469          36.000  
G29  20288204.868   106615235.6311       -521.843          43.000  
G31  21887533.776   115019766.1781      -1456.949          44.000  
R07  24629145.098                       -3141.827          36.000  
R09  24419208.833                        4182.268          38.000  
R14  23350225.076                       -4725.331          34.000  
R15  19701108.406                       -2386.169          42.000  
R16  20334682.292                        2171.851          31.000  
R17  19135802.959                       -1078.920          44.000  
R18  20523106.649                        2527.318          33.000  
> 2021  4 16 13  1 14.9987753  0 34
C05  39354408.610   204928732.7991       -239.392          34.000  
C13  37385708.712   194677195.2551       -600.432          26.000  
C14  25863326.791   134677318.0661        126.996          27.000  
C27  21394340.406   111405944.0891       -482.373          42.000  
C28  24264860.986   126353498.6121      -2976.889          39.000  
C30  23309482.381   121378457.7471       2269.720          42.000  
C36  23339547.068   121534953.5461       1187.720          40.000  
C37  26159028.581   136216925.8801      -3786.733          31.000  
C38  38519330.722   200580262.9661      -1041.337          31.000  
C46  22448097.705   116893135.2831      -2042.137          47.000  
E01                                                                                                                                  28609129.512   112268363.2821       2076.888          28.000  
E13                                                                                                                                  24683531.047    96863399.5111       1575.098          32.000  
E15                                                                                                                                  23238611.744    91193303.7601       -461.812          32.000  
E21                                                                                                                                  24481008.650    96068641.6151       1027.875          39.000  
E27                                                                                                                                  23700808.072    93007060.5451      -1166.082          37.000  
E30                                                                                                                                  26570084.813   104266718.8031      -2456.738          29.000  
G04  25135549.121   132088202.0451       -764.371          42.000    25135559.314    98637332.8701       -570.336          38.000  
G12  24767093.098   130151951.8831      -3981.487          22.000  
G16  24922209.314   130967056.2051       3507.056          35.000  
G18  22439100.034   117918303.3501       3101.043          42.000  
G20  24760505.459   130117355.5571       3180.509          32.000  
G25  21493397.830   112948567.8071      -2973.884          41.000    21493404.726    84344736.1271      -2219.586          36.000  
G26  22584823.752   118683991.4971       2753.093          39.000    22584830.347    88627666.9231       2056.642          36.000  
G29  20288304.699   106615760.0131       -521.498          43.000  
G31  21887811.383   115021224.1871      -1457.019          44.000  
R07  24629727.295                       -3140.520          36.000  
R08  23313198.009                        -555.918          25.000  
R09  24418424.876                        4183.204          37.000  
R14  23351110.962                       -4726.005          35.000  
R15  19701558.695                       -2387.056          42.000  
R16  20334277.273                        2170.576          30.000  
R17  19136006.818                       -1079.244          44.000  
R18  20522632.677                        2547.776          35.000  
R24  22255361.434                       -4002.783          32.000  
> 2021  4 16 13  1 15.9987750  0 35
C05  39354363.941   204928499.5461       -238.826          35.000  
C13  37385733.595   194677324.9111       -601.106          26.000  
C14  25863207.774   134676725.4141        123.926          19.000  
C27  21394342.805   111405956.3641       -482.014          41.000  
C28  24265345.751   126356022.8051      -2978.642          39.000  
C30  23308956.245   121375719.5471       2269.768          42.000  
C36  23339229.887   121533297.1241       1188.886          41.000  
C37  26159662.642   136220227.2521      -3787.031          32.000  
C38  38519437.149   200580817.2071      -1040.931          31.000  
C42  26782573.210   139463885.9721       -980.824          26.000  
C46  22448400.496   116894712.0951      -2042.725          48.000  
E01                                                                                                                                  28608508.642   112265931.4911       2082.996          22.000  
E13                                                                                                                                  24683039.987    96861472.2591       1573.973          31.000  
E15                                                                                                                                  23238640.224    91193414.9801       -462.906          31.000  
E21                                                                                                                                  24480656.694    96067260.6541       1027.858          39.000  
E27                                                                                                                                  23701015.528    93007875.2481      -1165.110          37.000  
E30                                                                                                                                  26570620.542   104268821.2901      -2458.201          28.000  
G02  24893180.410   130814545.9181      -3347.364          25.000  
G04  25135604.583   132088493.3011       -763.329          42.000    25135614.176    98637548.6831       -570.540          38.000  
G12  24767762.235   130155468.5271      -3984.399          21.000  
G16  24921452.937   130963076.1431       3507.823          30.000  
G18  22438420.405   117914729.7541       3100.556          39.000  
G20  24759808.741   130113702.5521       3179.730          32.000  
G25  21493873.901   112951069.5581      -2975.059          41.000    21493881.695    84346607.6691      -2221.302          35.000  
G26  22584211.875   118680765.2331       2753.262          40.000    22584216.672    88625257.4241       2056.583          36.000  
G29  20288315.192   106615815.4811       -522.028          44.000  
G31  21887996.955   115022199.3411      -1457.160          44.000  
R07  24630220.753                       -3139.451          36.000  
R09  24417546.784                        4183.495          38.000  
R14  23351905.412                       -4727.059          34.000  
R15  19701912.750                       -2387.724          40.000  
R16  20333780.816                        2169.988          30.000  
R17  19136120.439                       -1080.534          43.000  
R18  20522064.870                        2561.001          41.000  
R24  22256013.782                       -4004.356          30.000  
> 2021  4 16 13  1 16.9987750  0 35
C05  39354407.111   204928724.5151       -233.463          36.000  
C13  37385849.615   194677928.9711       -602.990          29.000  
C14  25863178.994   134676603.3581        121.473          16.000  
C27  21394434.841   111406436.3991       -482.510          42.000  
C28  24265919.553   126359010.2301      -2978.275          38.000  
C30  23308520.647   121373450.2791       2268.728          41.000  
C36  23339002.645   121532109.3481       1186.378          39.000  
C37  26160386.941   136223999.6851      -3787.894          29.000  
C38  38519633.812   200581840.7231      -1041.715          30.000  
C42  26782758.482   139464851.3621       -974.132          31.000  
C46  22448792.624   116896753.4971      -2044.033          49.000  
E01                                                                                                                                  28607976.210   112263847.9381       2084.010          32.000  
E13                                                                                                                                  24682640.064    96859898.8751       1572.513          32.000  
E15                                                                                                                                  23238758.342    91193878.6241       -463.482          30.000  
E21                                                                                                                                  24480394.975    96066233.4491       1027.275          39.000  
E27                                                                                                                                  23701312.323    93009039.8631      -1167.027          37.000  
E30                                                                                                                                  26571247.108   104271280.7971      -2452.819          29.000  
G02  24893816.569   130817888.6421      -3333.345          19.000  
G04  25135750.582   132089260.6841       -763.597          43.000    25135759.276    98638117.7451       -570.823          36.000  
G12  24768520.410   130159452.8481      -3980.707          18.000  
G16  24920785.000   130959568.2791       3507.888          34.000  
G18  22437830.413   117911629.6971       3099.570          42.000  
G20  24759201.961   130110522.8461       3178.747          31.000  
G25  21494438.710   112954037.7571      -2975.366          42.000    21494447.703    84348829.0641      -2222.236          36.000  
G26  22583686.939   118678011.9781       2752.887          40.000    22583692.635    88623200.5301       2057.473          36.000  
G29  20288414.423   106616337.3131       -523.465          43.000  
G31  21888274.563   115023658.3901      -1458.604          44.000  
R07  24630804.149                       -3138.379          36.000  
R08  23313322.423                        -562.310          27.000  
R09  24416765.525                        4184.003          34.000  
R14  23352793.398                       -4727.502          33.000  
R15  19702360.939                       -2389.894          41.000  
R16  20333372.199                        2169.592          27.000  
R17  19136325.198                       -1081.044          44.000  
R18  20521584.603                        2563.833          42.000  
> 2021  4 16 13  1 17.9987748  0 30
C05  39354390.622   204928639.0071       -231.140          36.000  
C08  39227927.971   204270114.2801      -1220.040          20.000  
C13  37385905.376   194678219.0801       -602.078          28.000  
C27  21394468.418   111406610.9041       -483.988          42.000  
C30  23308025.690   121370869.7741       2268.157          43.000  
C36  23338712.745   121530609.8591       1187.646          40.000  
C37  26161051.581   136227460.5931      -3788.744          32.000  
C42  26782884.995   139465509.6841       -970.566          21.000  
C46  22449125.394   116898486.8841      -2045.609          49.000  
E01                                                                                                                                  28607385.319   112261528.5771       2084.615          33.000  
E13                                                                                                                                  24682179.283    96858090.5811       1573.094          32.000  
E15                                                                                                                                  23238815.903    91194104.6441       -463.322          30.000  
E21                                                                                                                                  24480072.998    96064970.0031       1028.265          39.000  
E27                                                                                                                                  23701550.058    93009972.6961      -1167.290          37.000  
E30                                                                                                                                  26571812.817   104273500.7911      -2445.952          27.000  
G04  25135836.622   132089712.0211       -763.339          43.000    25135845.017    98638454.2891       -570.290          36.000  
G12  24769215.629   130163106.2691      -3980.239          21.000  
G18  22437179.264   117908215.7941       3098.411          42.000  
G25  21494945.659   112956700.8861      -2977.236          42.000    21494954.053    84350816.1931      -2222.984          36.000  
G26  22583102.044   118674943.6931       2754.356          38.000    22583108.639    88620908.2671       2057.035          36.000  
G29  20288454.595   106616548.4231       -523.263          44.000  
G31  21888492.512   115024804.3821      -1460.184          44.000  
R07  24631335.981                       -3138.116          39.000  
R09  24415923.408                        4185.353          33.000  
R14  23353619.925                       -4728.655          34.000  
R15  19702745.573                       -2392.340          41.000  
R16  20332906.622                        2169.766          30.000  
R17  19136461.903                       -1080.544          43.000  
R18  20521044.676                        2554.877          42.000  
R24  22257453.985                       -3996.465          25.000  
> 2021  4 16 13  1 18.9987748  0 35
C05  39354433.493   204928861.8091       -239.263          37.000  
C08  39228156.712   204271305.5291      -1224.173          25.000  
C13  37386021.396   194678824.1611       -600.888          30.000  
C27  21394561.054   111407093.3371       -484.007          42.000  
C28  24267008.699   126364682.0721      -2979.549          27.000  
C30  23307589.192   121368602.0601       2267.164          42.000  
C36  23338485.503   121529422.5001       1187.104          41.000  
C37  26161778.278   136231244.2471      -3790.164          34.000  
C38  38519970.180   200583592.4111      -1039.657          28.000  
C46  22449519.021   116900536.6531      -2046.114          48.000  
E01                                                                                                                                  28606853.188   112259443.9231       2084.441          31.000  
E13                                                                                                                                  24681778.460    96856518.9201       1571.152          31.000  
E15                                                                                                                                  23238934.321    91194569.4261       -464.288          30.000  
E21                                                                                                                                  24479811.279    96063942.1451       1026.946          39.000  
E27                                                                                                                                  23701847.452    93011139.6411      -1166.808          37.000  
E30                                                                                                                                  26572437.584   104275951.8071      -2452.621          25.000  
G02  24895020.536   130824215.5101      -3338.192          26.000  
G04  25135982.022   132090476.5031       -763.940          45.000    25135990.116    98639024.0481       -569.927          37.000  
G12  24769970.506   130167072.8421      -3980.534          30.000  
G16  24919389.166   130952237.8801       3508.206          36.000  
G18  22436591.071   117905117.8601       3097.640          42.000  
G25  21495510.468   112959669.8821      -2976.494          41.000    21495520.661    84353039.6451      -2223.371          35.000  
G26  22582579.805   118672189.5211       2754.033          38.000    22582583.703    88618851.1791       2056.838          35.000  
G29  20288553.527   106617068.3191       -523.216          43.000  
G31  21888770.120   115026262.6411      -1460.574          44.000  
R01  23346312.184                        2020.270          24.000  
R07  24631935.866                       -3138.391          37.000  
R08  23313488.208                        -570.935          29.000  
R09  24415139.451                        4185.839          41.000  
R14  23354507.311                       -4729.550          38.000  
R15  19703194.662                       -2391.424          41.000  
R16  20332503.101                        2169.784          33.000  
R17  19136664.263                       -1080.907          44.000  
R18  20520568.306                        2555.870          43.000  
R24  22258198.370                       -4005.122          29.000  
> 2021  4 16 13  1 19.9987745  0 37
C05  39354389.123   204928631.3161       -239.613          36.000  
C08  39228297.615   204272039.7601      -1227.234          28.000  
C13  37386047.178   194678957.8581       -600.293          29.000  
C27  21394563.752   111407107.2821       -484.429          42.000  
C28  24267489.567   126367185.5571      -2978.050          38.000  
C30  23307064.555   121365866.6101       2267.232          42.000  
C36  23338167.723   121527768.1031       1185.822          39.000  
C37  26162414.437   136234556.5971      -3789.463          33.000  
C38  38520078.405   200584156.3231      -1039.101          29.000  
C42  26783168.298   139466985.6831       -976.340          25.000  
C46  22449822.411   116902116.5111      -2045.917          49.000  
E01                                                                                                                                  28606232.018   112257006.6791       2083.894          32.000  
E13                                                                                                                                  24681287.700    96854594.6951       1572.114          31.000  
E15                                                                                                                                  23238963.400    91194683.6381       -463.614          30.000  
E21                                                                                                                                  24479459.623    96062562.3511       1026.094          39.000  
E27                                                                                                                                  23702054.309    93011951.6861      -1167.208          38.000  
E30                                                                                                                                  26572975.712   104278063.3641      -2457.400          25.000  
G04  25136036.884   132090765.2851       -765.274          45.000    25136045.278    98639240.1081       -572.267          36.000  
G05  23078869.131   121280168.6881       1512.994          21.000  
G12  24770635.746   130170569.3021      -3980.137          34.000  
G16  24918629.792   130948257.3931       3506.561          37.000  
G18  22435911.442   117901547.5121       3098.275          42.000  
G20  24757237.421   130100202.8441       3176.792          32.000  
G25  21495988.337   112962180.5561      -2976.524          41.000    21495997.031    84354909.2521      -2222.067          37.000  
G26                                                                  22581969.428    88616441.8401       2056.332          34.000  
G29  20288562.820   106617117.1101       -524.033          43.000  
G31  21888957.790   115027248.6101      -1461.453          44.000  
R01  23345841.510                        2020.578          26.000  
R07  24632432.322                       -3139.433          36.000  
R08  23313503.497                        -571.328          31.000  
R09  24414265.556                        4185.669          43.000  
R14  23355305.958                       -4729.759          37.000  
R15  19703552.315                       -2391.949          42.000  
R16  20332006.645                        2169.494          31.000  
R17  19136774.886                       -1081.906          44.000  
R18  20520001.399                        2555.730          43.000  
R24  22258853.416                       -4011.681          33.000  
> 2021  4 16 13  1 20.9987743  0 35
C05  39354373.234   204928548.5731       -235.951          36.000  
C13  37386102.040   194679243.3501       -599.024          27.000  
C27  21394597.628   111407283.3981       -484.664          41.000  
C28  24268000.413   126369845.9501      -2977.185          34.000  
C30  23306568.998   121363287.7111       2266.313          43.000  
C36  23337881.121   121526271.1081       1184.298          40.000  
C37  26163080.876   136238026.9661      -3789.011          33.000  
C38  38520217.508   200584880.2701      -1038.101          29.000  
C42  26783296.010   139467650.6361       -980.229          25.000  
C46  22450155.181   116903848.6201      -2046.672          49.000  
E01                                                                                                                                  28605641.427   112254687.4701       2083.695          36.000  
E13                                                                                                                                  24680826.919    96852787.8341       1570.795          31.000  
E15                                                                                                                                  23239021.560    91194911.9201       -463.595          32.000  
E21                                                                                                                                  24479137.646    96061300.5951       1026.175          40.000  
E27                                                                                                                                  23702291.745    93012883.7471      -1167.339          38.000  
E30                                                                                                                                  26573545.317   104280299.4621      -2458.746          26.000  
G02  24896139.661   130830096.3311      -3343.853          29.000  
G04  25136121.725   132091210.4221       -767.192          46.000    25136131.618    98639578.8881       -573.342          35.000  
G12  24771331.864   130174227.4781      -3978.922          35.000  
G16  24917903.994   130944436.6591       3505.502          40.000  
G18  22435262.391   117898133.9711       3098.476          43.000  
G20  24756572.781   130096710.0821       3178.099          33.000  
G25  21496496.185   112964849.8571      -2976.542          42.000    21496503.680    84356896.7461      -2223.272          37.000  
G26  22581385.432   118665895.0561       2752.096          37.000    22581386.032    88614151.1281       2054.738          36.000  
G29  20288602.093   106617323.2941       -525.025          44.000  
G31  21889176.039   115028395.4661      -1462.649          44.000  
R01  23345399.616                        2024.940          23.000  
R07  24632962.355                       -3142.815          39.000  
R09  24413420.741                        4183.332          41.000  
R14  23356130.387                       -4728.339          36.000  
R15  19703939.347                       -2393.844          41.000  
R16  20331541.667                        2168.358          29.000  
R17  19136917.887                       -1082.935          45.000  
R18  20519450.080                        2549.496          43.000  
R24  22259542.040                       -4004.581          29.000  
> 2021  4 16 13  1 21.9987743  0 38
C05  39354418.503   204928783.7731       -236.125          37.000  
C08  39228702.334   204274146.6761      -1227.231          24.000  
C13  37386219.559   194679855.2671       -599.668          29.000  
C14  25862866.610   134674860.7741        133.201          19.000  
C27  21394689.665   111407763.4371       -486.020          42.000  
C28  24268571.218   126372818.6501      -2976.660          34.000  
C30  23306132.800   121361021.3061       2266.543          43.000  
C36  23337653.579   121525085.8741       1185.350          40.000  
C37  26163807.873   136241813.2071      -3789.876          33.000  
C38  38520415.671   200585912.0381      -1038.933          28.000  
C42  26783485.479   139468637.3171       -986.479          25.000  
C46  22450547.909   116905893.6131      -2047.579          49.000  
E01                                                                                                                                  28605111.094   112252603.9721       2083.857          38.000  
E13                                                                                                                                  24680426.396    96851216.0901       1571.614          31.000  
E15                                                                                                                                  23239140.578    91195378.9491       -463.946          32.000  
E21                                                                                                                                  24478876.826    96060274.4421       1026.291          40.000  
E27                                                                                                                                  23702589.139    93014050.2481      -1167.417          38.000  
E30                                                                                                                                  26574173.383   104282763.5231      -2459.719          27.000  
G04  25136268.024   132091979.0691       -766.413          46.000    25136278.217    98640153.9461       -571.434          37.000  
G05  23078227.276   121276826.6811       1515.717          29.000  
G12  24772087.940   130178200.1591      -3978.374          33.000  
G16  24917234.857   130940930.5151       3506.437          40.000  
G18  22434671.800   117895036.4161       3095.933          43.000  
G20  24755967.500   130093531.2901       3178.703          35.000  
G25  21497060.994   112967817.1141      -2978.249          41.000    21497071.487    84359125.0451      -2223.873          37.000  
G26  22580859.896   118663142.8951       2752.504          36.000    22580862.894    88612096.4551       2054.628          36.000  
G29  20288702.823   106617852.2141       -525.360          44.000  
G31  21889454.246   115029858.3641      -1463.228          45.000  
R01  23345009.586                        2025.338          25.000  
R07  24633548.449                       -3141.272          35.000  
R08  23313656.991                        -579.224          26.000  
R09  24412636.184                        4184.981          42.000  
R14  23357020.771                       -4728.740          35.000  
R15  19704389.935                       -2394.204          41.000  
R16  20331136.647                        2166.001          29.000  
R17  19137121.447                       -1083.082          45.000  
R18  20518969.813                        2552.814          43.000  
R24  22260287.324                       -4003.498          33.000  
> 2021  4 16 13  1 22.9987740  0 34
C05  39354375.333   204928559.1381       -240.247          37.000  
C08  39228845.036   204274889.6141      -1226.192          25.000  
C13  37386246.240   194679994.4851       -599.384          30.000  
C27  21394695.061   111407791.2081       -486.342          42.000  
C28  24269052.385   126375323.7891      -2976.398          37.000  
C30  23305608.163   121358287.2661       2264.634          43.000  
C36  23337336.698   121523432.6491       1184.320          41.000  
C37  26164444.332   136245126.8771      -3790.951          33.000  
C38  38520525.995   200586486.7901      -1039.178          30.000  
C46  22450851.299   116907473.3401      -2048.625          49.000  
E01                                                                                                                                  28604490.823   112250166.8421       2084.546          35.000  
E13                                                                                                                                  24679937.135    96849292.9411       1569.539          32.000  
E15                                                                                                                                  23239170.257    91195495.2151       -465.168          32.000  
E21                                                                                                                                  24478525.469    96058895.0761       1026.345          39.000  
E27                                                                                                                                  23702797.495    93014868.2561      -1170.352          37.000  
E30                                                                                                                                  26574712.709   104284879.7601      -2460.921          26.000  
G04  25136324.085   132092274.0101       -764.837          45.000    25136334.278    98640374.5531       -572.279          37.000  
G05  23077846.839   121274839.2251       1512.669          27.000  
G16  24916478.481   130936950.1851       3508.153          41.000  
G18  22433993.070   117891468.3651       3094.466          43.000  
G20  24755272.881   130089880.3421       3178.124          35.000  
G25  21497537.065   112970319.2721      -2979.245          41.000    21497548.457    84360996.9511      -2224.345          35.000  
G26  22580242.324   118659916.8851       2753.505          36.000    22580249.818    88609688.8491       2054.744          35.000  
G29  20288713.316   106617907.6391       -525.563          43.000  
G31  21889644.614   115030858.0141      -1463.267          44.000  
R01  23344541.610                        2023.134          25.000  
R07  24634040.409                       -3139.679          38.000  
R09  24411761.089                        4187.022          43.000  
R14  23357815.221                       -4730.093          37.000  
R15  19704745.489                       -2395.918          41.000  
R16  20330641.690                        2166.450          31.000  
R17  19137233.269                       -1083.157          45.000  
R18  20518393.911                        2554.172          42.000  
R24  22260944.469                       -4003.733          33.000  
> 2021  4 16 13  1 23.9987740  0 35
C05  39354421.201   204928798.4011       -239.985          35.000  
C08  39229077.375   204276099.3521      -1226.835          26.000  
C13  37386362.260   194680598.8431       -601.720          27.000  
C27  21394787.996   111408275.4431       -487.298          42.000  
C28  24269624.389   126378302.0151      -2976.245          32.000  
C30  23305173.764   121356022.3241       2264.885          42.000  
C36  23337107.657   121522248.4291       1184.275          42.000  
C37  26165171.629   136248914.0921      -3791.423          33.000  
C38  38520725.657   200587526.8651      -1036.994          29.000  
C46  22451243.727   116909517.5461      -2049.616          49.000  
E01                                                                                                                                  28603960.190   112248081.4651       2085.802          35.000  
E13                                                                                                                                  24679537.811    96847723.6531       1568.273          31.000  
E15                                                                                                                                  23239288.675    91195959.9021       -465.322          28.000  
E21                                                                                                                                  24478264.050    96057868.7721       1025.855          39.000  
E27                                                                                                                                  23703094.889    93016035.1981      -1169.131          36.000  
E30                                                                                                                                  26575338.976   104287337.8681      -2460.112          22.000  
G02  24897961.800   130839671.5521      -3346.382          22.000  
G04  25136470.683   132093044.4711       -766.654          44.000    25136479.078    98640942.8311       -571.605          35.000  
G05  23077559.338   121273328.2991       1509.490          30.000  
G16  24915809.944   130933442.1741       3507.550          43.000  
G18  22433403.978   117888373.8371       3094.872          42.000  
G20  24754668.200   130086702.6721       3177.321          35.000  
G25  21498104.272   112973299.5861      -2979.051          41.000    21498115.065    84363220.5831      -2223.888          32.000  
G26  22579718.286   118657164.6791       2752.177          36.000    22579726.381    88607633.8801       2055.347          35.000  
G29  20288813.447   106618433.8101       -525.678          44.000  
G31  21889923.122   115032321.6641      -1464.375          45.000  
R07  24634624.704                       -3139.784          43.000  
R08  23313780.506                        -572.525          41.000  
R09  24410978.631                        4186.256          44.000  
R14  23358699.609                       -4733.903          32.000  
R15  19705194.278                       -2396.514          40.000  
R16  20330235.471                        2166.065          30.000  
R17  19137432.631                       -1084.635          44.000  
R18  20517911.545                        2548.560          42.000  
R24  22261694.250                       -3998.058          31.000  
> 2021  4 16 13  1 24.9987738  0 36
C05  39354405.612   204928716.3961       -238.237          36.000  
C08  39229251.854   204277008.3711      -1227.132          27.000  
C13  37386417.122   194680883.8691       -602.732          29.000  
C27  21394821.873   111408451.8651       -486.783          42.000  
C28  24270136.134   126380967.3171      -2977.215          31.000  
C30  23304678.807   121353445.3381       2264.256          43.000  
C36  23336821.355   121520751.7301       1185.011          39.000  
C37  26165839.266   136252391.1441      -3791.314          35.000  
C38  38520863.561   200588244.5101      -1037.166          29.000  
C46  22451577.696   116911255.8491      -2049.692          50.000  
E01                                                                                                                                  28603369.299   112245760.8991       2084.359          33.000  
E13                                                                                                                                  24679079.129    96845919.4421       1569.433          32.000  
E15                                                                                                                                  23239348.334    91196193.4731       -466.639          31.000  
E21                                                                                                                                  24477942.673    96056607.9021       1025.501          39.000  
E27                                                                                                                                  23703333.224    93016969.7731      -1169.083          37.000  
E30                                                                                                                                  26575906.783   104289565.7881      -2460.065          23.000  
G02  24898538.001   130842699.6261      -3345.358          31.000  
G04  25136556.124   132093493.2121       -766.784          44.000    25136564.518    98641278.0311       -571.809          35.000  
G05  23077212.178   121271504.7091       1509.192          33.000  
G16  24915082.347   130929620.4491       3506.948          43.000  
G18  22432754.327   117884963.9551       3094.701          43.000  
G20  24754003.560   130083210.0941       3177.398          37.000  
G25  21498613.320   112975974.6911      -2979.956          41.000    21498621.414    84365207.5421      -2225.474          32.000  
G26  22579138.188   118654098.1381       2751.319          35.000    22579142.985    88605343.4421       2054.717          35.000  
G29  20288853.319   106618643.7511       -526.143          44.000  
G31  21890140.771   115033465.4131      -1464.819          44.000  
R01  23343724.975                        2025.712          23.000  
R07  24635146.043                       -3140.800          42.000  
R08  23313824.275                        -573.323          39.000  
R09  24410133.816                        4185.637          42.000  
R14  23359525.537                       -4732.240          36.000  
R15  19705584.907                       -2397.475          41.000  
R16  20329768.994                        2168.918          27.000  
R17  19137578.030                       -1085.449          44.000  
R18  20517390.806                        2550.647          43.000  
R24  22262380.475                       -4001.512          27.000  
> 2021  4 16 13  1 25.9987735  0 37
C05  39354360.343   204928481.3221       -238.601          35.000  
C08  39229394.855   204277753.2511      -1226.512          24.000  
C13  37386444.703   194681028.4001       -603.472          29.000  
C14  25862528.144   134673056.4301        136.128          25.000  
C27  21394824.571   111408465.7801       -487.033          42.000  
C28  24270617.301   126383473.3421      -2977.934          38.000  
C30  23304153.870   121350712.3301       2265.149          43.000  
C36  23336506.573   121519097.3851       1184.204          36.000  
C37  26166477.525   136255715.0351      -3791.572          34.000  
C38  38520972.985   200588814.6171      -1037.542          31.000  
C46  22451881.386   116912837.4671      -2050.286          50.000  
E01                                                                                                                                  28602748.429   112243323.1431       2085.535          32.000  
E13                                                                                                                                  24678588.968    96843996.7331       1570.047          31.000  
E15                                                                                                                                  23239374.716    91196297.2931       -467.065          29.000  
E21                                                                                                                                  24477590.717    96055228.6691       1027.072          39.000  
E27                                                                                                                                  23703541.879    93017789.4911      -1169.876          38.000  
E30                                                                                                                                  26576443.411   104291671.3391      -2461.804          25.000  
G04  25136612.185   132093788.0601       -766.107          44.000    25136620.280    98641496.9021       -572.026          38.000  
G05  23076835.339   121269523.9461       1506.203          27.000  
G12  24774870.914   130192824.9961      -3970.889          18.000  
G16  24914325.072   130925639.9931       3508.420          43.000  
G18  22432076.796   117881397.3841       3092.983          43.000  
G20  24753308.341   130079560.1631       3176.914          35.000  
G25  21499089.690   112978478.5751      -2981.109          41.000    21499098.684    84367080.1161      -2225.607          34.000  
G26  22578526.012   118650873.8051       2752.502          34.000    22578529.309    88602935.9031       2054.846          35.000  
G29  20288863.512   106618696.4791       -526.566          45.000  
G31  21890329.640   115034458.6631      -1464.884          45.000  
R01  23343251.903                        2022.175          25.000  
R07  24635645.797                       -3139.441          39.000  
R08  23313835.368                        -575.419          36.000  
R09  24409260.820                        4187.706          43.000  
R14  23360319.987                       -4733.422          33.000  
R15  19705944.958                       -2398.471          41.000  
R16  20329271.638                        2167.784          29.000  
R17  19137691.652                       -1085.214          44.000  
R18  20516818.502                        2554.760          43.000  
R24  22263036.720                       -4003.759          33.000  
> 2021  4 16 13  1 26.9987735  0 36
C05  39354406.212   204928720.3831       -239.635          35.000  
C13  37386561.622   194681636.7811       -602.990          29.000  
C27  21394918.706   111408955.7451       -488.989          42.000  
C28  24271188.406   126386446.3311      -2978.135          39.000  
C30  23303719.471   121348447.5471       2264.403          43.000  
C36  23336277.531   121517913.6581       1183.504          41.000  
C37  26167207.219   136259514.4841      -3793.137          36.000  
C38  38521171.748   200589849.2621      -1037.820          31.000  
C42  26784160.611   139472152.5311       -983.801          25.000  
C46  22452275.013   116914887.3901      -2051.782          49.000  
E01                                                                                                                                  28602216.597   112241237.4121       2085.246          31.000  
E13                                                                                                                                  24678189.045    96842427.3691       1568.561          31.000  
E15                                                                                                                                  23239492.534    91196760.1311       -466.424          27.000  
E21                                                                                                                                  24477329.298    96054201.7901       1026.551          39.000  
E27                                                                                                                                  23703840.173    93018959.3961      -1170.519          37.000  
E30                                                                                                                                  26577070.577   104294132.3951      -2463.104          26.000  
G04  25136758.484   132094556.5281       -764.973          44.000    25136766.579    98642070.8031       -571.751          39.000  
G05  23076547.239   121268018.1331       1505.213          31.000  
G12  24775630.288   130196815.8971      -3981.239          28.000  
G16  24913658.933   130922130.8291       3509.762          44.000  
G18  22431488.604   117878304.6081       3092.089          42.000  
G20  24752704.859   130076384.2651       3174.643          36.000  
G25  21499658.396   112981467.4341      -2983.022          41.000    21499665.891    84369306.6871      -2226.606          34.000  
G26  22578003.773   118648121.0781       2752.953          37.000    22578005.572    88600880.8611       2055.886          35.000  
G29  20288963.643   106619222.5991       -527.308          43.000  
G31  21890608.147   115035922.0871      -1465.959          44.000  
R01  23342874.464                        2019.609          26.000  
R07  24636229.493                       -3138.591          41.000  
R08  23313940.595                        -574.512          33.000  
R09  24408478.062                        4188.690          43.000  
R14  23361207.373                       -4735.491          33.000  
R15  19706392.249                       -2399.359          42.000  
R16  20328864.520                        2164.714          32.000  
R17  19137896.110                       -1086.117          45.000  
R18  20516351.725                        2553.590          43.000  
R24  22263783.503                       -4003.687          35.000  
> 2021  4 16 13  1 27.9987732  0 36
C05  39354362.742   204928493.7891       -240.281          35.000  
C08  39229775.891   204279737.4131      -1223.369          27.000  
C13  37386587.104   194681769.1551       -602.254          27.000  
C27  21394923.203   111408978.7811       -488.279          43.000  
C28  24271669.573   126388952.2731      -2977.785          39.000  
C30  23303194.834   121345714.9301       2264.075          43.000  
C36  23335959.152   121516261.0871       1185.198          40.000  
C37  26167847.276   136262847.0351      -3796.592          34.000  
C38  38521282.671   200590427.0181      -1038.453          31.000  
C46  22452580.502   116916478.0791      -2052.470          49.000  
E01                                                                                                                                  28601594.828   112238798.1011       2087.760          32.000  
E13                                                                                                                                  24677699.484    96840507.2591       1566.979          31.000  
E15                                                                                                                                  23239520.415    91196869.2281       -467.825          27.000  
E21                                                                                                                                  24476977.341    96052822.2561       1027.613          39.000  
E27                                                                                                                                  23704047.929    93019775.2291      -1170.972          38.000  
E30                                                                                                                                  26577608.405   104296243.5771      -2462.581          26.000  
G02  24900265.705   130851779.2051      -3343.295          30.000  
G04  25136813.346   132094845.1631       -763.920          44.000    25136822.640    98642290.9761       -570.691          38.000  
G05  23076170.699   121266040.4071       1504.359          33.000  
G16  24912901.357   130918147.8091       3510.679          41.000  
G18  22430811.672   117874740.7001       3090.622          42.000  
G20  24752012.338   130072737.9281       3173.007          38.000  
G25  21500136.865   112983981.6261      -2983.768          42.000    21500143.760    84371181.6791      -2227.575          31.000  
G26  22577390.398   118644894.8201       2753.894          35.000    22577391.597    88598471.7161       2056.785          35.000  
G29  20288972.637   106619270.4261       -527.000          44.000  
G31  21890797.616   115036917.0701      -1465.729          44.000  
R01  23342405.889                        2017.624          24.000  
R07  24636733.744                       -3137.278          41.000  
R08  23313955.884                        -573.205          33.000  
R09  24407605.666                        4190.662          43.000  
R14  23362003.621                       -4736.422          36.000  
R15  19706751.400                       -2401.540          42.000  
R16  20328368.363                        2163.778          29.000  
R17  19138009.132                       -1086.017          45.000  
R18  20515781.220                        2546.590          43.000  
R24  22264437.651                       -4002.605          37.000  
