     3.03           OBSERVATION DATA    M: Mixed            RINEX VERSION / TYPE
Geo++ RINEX Logger  Geo++               20200416 161244 UTC PGM / RUN BY / DATE
************************************************************COMMENT
This file was generated by the Geo++ RINEX Logger App       COMMENT
for Android devices (Version 2.1.6). If you encounter       COMMENT
any issues, please send an email to android@geopp.de        COMMENT
Filtering Mode: BEST                                        COMMENT
************************************************************COMMENT
Geo++                                                       MARKER NAME
GEODETIC                                                    MARKER TYPE
Geo++               Geo++                                   OBSERVER / AGENCY
unknown             HUAWEI              VKY-L29             REC # / TYPE / VERS
unknown             VKY-L29                                 ANT # / TYPE
  3544114.1218  1342713.0207  5113034.3336                  APPROX POSITION XYZ
        0.0000        0.0000        0.0000                  ANTENNA: DELTA H/E/N
G    8 C1C L1C D1C S1C C5Q L5Q D5Q S5Q                      SYS / # / OBS TYPES
R    4 C1C L1C D1C S1C                                      SYS / # / OBS TYPES
E   12 C1B L1B D1B S1B C1C L1C D1C S1C C5Q L5Q D5Q S5Q      SYS / # / OBS TYPES
C    4 C2I L2I D2I S2I                                      SYS / # / OBS TYPES
J    8 C1C L1C D1C S1C C5Q L5Q D5Q S5Q                      SYS / # / OBS TYPES
  2020     4    16    16    13    2.0003450     GPS         TIME OF FIRST OBS
 24 R01  1 R02 -4 R03  5 R04  6 R05  1 R06 -4 R07  5 R08  6 GLONASS SLOT / FRQ #
    R09 -2 R10 -5 R11  0 R12 -1 R13 -2 R14 -7 R15  0 R16 -1 GLONASS SLOT / FRQ #
    R17  4 R18 -3 R19  3 R20  2 R21  4 R22 -3 R23  3 R24  2 GLONASS SLOT / FRQ #
G L1C                                                       SYS / PHASE SHIFT
G L5Q -0.25000                                              SYS / PHASE SHIFT
R L1C                                                       SYS / PHASE SHIFT
E L1B                                                       SYS / PHASE SHIFT
E L1C +0.50000                                              SYS / PHASE SHIFT
E L5Q -0.25000                                              SYS / PHASE SHIFT
C L2I                                                       SYS / PHASE SHIFT
J L1C                                                       SYS / PHASE SHIFT
J L5Q -0.25000                                              SYS / PHASE SHIFT
 C1C    0.000 C1P    0.000 C2C    0.000 C2P    0.000        GLONASS COD/PHS/BIS
                                                            END OF HEADER
> 2020  4 16 16 13  2.0003450  2  0
> 2020  4 16 16 13  2.0003450  0 18
G10  24417473.335                        4089.527          26.282  
G13  25136394.536                        2391.534          24.885  
G15  24698014.620                        2868.628          30.241  
G16  20885029.295   109751568.8761        994.554          37.776  
G18  20830254.515   109463726.1051      -1344.160          33.992  
G20  21872771.695                        3072.406          32.066  
G21  21003653.573   110374944.3801       -664.012          34.617  
G26  21043532.566   110584509.5481      -1261.543          34.665  
G27  22573373.179                        3345.534          35.054  
G29  23466924.686                       -2865.321          29.461  
R03  24390889.838                       -3213.140          22.532  
R04  21733690.179   116382923.8711       -402.796          37.533  
R05  21778174.883   116416824.9791       3338.804          34.230  
R10  22504621.475                       -3942.907          27.330  
R11  20418203.872   109108690.3481       -458.757          37.501  
R12  22171664.476   118437051.2011       3256.624          33.604  
R20  20052030.768                       -1510.984          22.320  
R21  20222072.451   108212394.0771       2426.836          35.090  
> 2020  4 16 16 13  3.0003452  0 18
G10  24416764.626                        4088.542          25.363  
G13  25136009.902                        2395.820          28.704  
G15  24697523.860                        2868.226          32.346  
G16  20884906.980   109750891.287         992.354          35.071  
G18  20830571.695   109465386.097       -1346.232          37.540  
G20  21872241.662                        3070.637          35.430  
G21  21003827.753   110375924.559        -666.130          34.333  
G26  21043831.758   110586087.391       -1263.557          36.085  
G27  22572799.676                        3340.147          32.106  
G29  23467529.667                       -2864.601          30.139  
R03  24391526.298                       -3213.179          17.924  
R04  21733816.392   116383648.732        -405.956          38.063  
R05  21777606.477   116413808.264        3335.491          34.936  
R10  22505417.724                       -3941.777          27.200  
R11  20418340.277   109109469.956        -459.719          33.175  
R12  22171093.072                        3252.334          33.129  
R20  20052338.655                       -1510.489          25.290  
R21  20221674.026   108210289.043        2426.878          33.671  
> 2020  4 16 16 13  4.0003454  0 17
G10  24416016.044                        4088.680          25.945  
G13  25135626.468                        2395.581          26.474  
G15  24697042.393                        2868.157          31.123  
G16  20884778.968   109750216.404         988.660          33.125  
G18  20830890.974   109467047.542       -1346.134          35.837  
G20  21871716.726                        3069.076          32.962  
G21  21004019.920   110376905.955        -665.548          33.853  
G26  21044132.450   110587667.103       -1265.758          38.700  
G27  22572224.374                        3337.367          31.545  
G29  23468151.737                       -2863.649          26.744  
R04  21733952.798   116384375.862        -406.028          38.643  
R05  21777049.462                        3334.263          31.632  
R10  22506179.196                       -3944.992          29.608  
R11  20418497.968                        -465.682          33.260  
R12  22170554.944                        3247.771          30.923  
R20  20052708.299                       -1511.062          24.971  
R21  20221279.500   108208186.811        2422.763          33.037  
> 2020  4 16 16 13  5.0003457  0 17
G10  24415337.314                        4086.167          28.263  
G13  25135257.423                        2392.254          24.723  
G15  24696592.105                        2869.754          29.047  
G16  20884674.940   109749702.057         985.696          36.469  
G18  20831232.438   109468867.253       -1347.330          35.898  
G20  21871231.062                        3067.690          34.631  
G21  21004234.271   110378046.410        -668.523          33.543  
G26  21044467.918   110589407.554       -1269.086          36.104  
G27  22571679.951                        3336.773          29.811  
G29  23468752.521                       -2865.017          26.649  
R04  21734130.275   116385263.956        -406.587          34.636  
R05  21776513.134                        3335.362          32.455  
R10  22507017.116                       -3947.618          28.627  
R11  20418664.952                        -467.642          34.885  
R12  22170029.408                        3247.197          37.497  
R20  20053055.758                       -1512.435          25.397  
R21  20220903.860   108206248.000        2418.902          32.078  
> 2020  4 16 16 13  6.0003459  0 17
G10  24414614.214                        4085.709          28.108  
G13  25134865.295                        2391.900          22.547  
G15  24696134.322                        2867.184          26.531  
G16  20884545.430   109749032.296         983.852          35.126  
G18  20831547.520   109470530.436       -1349.406          36.933  
G20  21870701.628                        3067.038          35.535  
G21  21004422.541   110379030.253        -670.469          32.460  
G26  21044762.014   110590992.297       -1270.576          37.153  
G27  22571101.951                        3333.566          28.717  
G29  23469377.288                       -2865.438          30.496  
R04  21734267.879   116385992.895        -409.915          33.342  
R05  21775953.121                        3333.929          36.176  
R10  22507792.380                       -3948.526          26.637  
R11  20418827.740                        -470.155          34.047  
R12  22169491.281                        3244.245          40.009  
R20  20053449.985                       -1510.173          22.922  
R21  20220505.435   108204150.723        2416.638          31.477  
> 2020  4 16 16 13  7.0003461  0 17
G10  24413909.102                        4084.475          34.582  
G13  25134486.357                        2392.641          20.833  
G15  24695602.190                        2867.346          24.373  
G16  20884415.920   109748364.440         982.648          33.679  
G18  20831865.600   109472195.595       -1350.704          31.800  
G20  21870185.386                        3065.161          32.457  
G21  21004624.001   110380015.987        -671.192          34.216  
G26  21045060.308   110592578.883       -1272.403          34.480  
G27  22570522.153                        3332.361          32.741  
G29  23469984.068                       -2866.652          29.386  
R04  21734374.006   116386724.029        -410.762          32.762  
R05  21775398.206                        3332.174          35.823  
R10  22508615.310                       -3950.075          29.256  
R11  20418964.445                        -471.602          32.686  
R12  22168944.759                        3243.546          40.741  
R20  20053771.363                       -1517.909          23.690  
R21  20220131.894   108202054.845        2416.260          31.176  
> 2020  4 16 16 13  8.0003463  0 17
G10  24413189.301                        4084.143          37.634  
G13  25134070.545                        2387.805          22.561  
G15  24695132.416                        2866.028          30.499  
G16  20884298.401   109747697.420         981.506          35.951  
G18  20832186.377   109473861.423       -1351.490          32.660  
G20  21869655.652                        3064.170          32.502  
G21  21004806.575   110381002.328        -671.815          34.106  
G26  21045367.895   110594166.424       -1273.076          34.999  
G27  22569960.941                        3333.229          31.892  
G29  23470596.244                       -2866.945          26.817  
R04  21734525.101   116387456.509        -412.244          33.425  
R05  21774833.397                        3331.115          35.494  
R10  22509451.731   120072512.3701      -3950.904          27.625  
R11  20419138.325                        -472.645          31.912  
R12  22168390.443                        3242.633          41.567  
R20  20054124.818                       -1519.821          22.776  
R21  20219738.266   108199959.637        2415.572          31.729  
> 2020  4 16 16 13  9.0003466  0 17
G10  24412488.386   128288602.5041       4083.451          35.967  
G13  25133671.221                        2390.749          20.270  
G15  24694663.840                        2865.290          32.530  
G16  20884199.470   109747188.972         980.547          35.616  
G18  20832533.237   109475685.749       -1351.980          33.375  
G20  21869162.494   114923236.5561       3063.882          31.888  
G21  21005017.629   110382146.976        -672.291          34.099  
G26  21045702.463   110595912.425       -1273.790          33.686  
G27  22569414.420                        3332.576          31.499  
G29  23471224.609                       -2867.642          27.671  
R04  21734716.069   116388350.743        -413.441          33.698  
R05  21774319.252   116396048.5501       3330.325          35.884  
R10  22510231.791   120076673.390       -3951.525          25.440  
R11  20419307.108   109114526.0921       -473.931          31.696  
R12  22167878.097   118416887.7741       3241.621          41.420  
R20  20054486.068                       -1515.621          23.494  
R21  20219380.314   108198025.814        2414.857          32.724  
> 2020  4 16 16 13 10.0003468  0 17
G10  24411772.182   128284834.186        4083.629          36.186  
G13  25133300.978                        2387.151          19.845  
G15  24694180.275                        2865.202          32.819  
G16  20884067.861   109746523.818         980.123          34.984  
G18  20832852.217   109477353.061       -1352.295          34.455  
G20  21868630.062   114920488.280        3063.582          32.263  
G21  21005190.609   110383134.540        -672.118          33.663  
G26  21046004.354   110597501.768       -1274.222          35.399  
G27  22568843.315   118600026.6311       3332.208          31.132  
G29  23471820.897   123345280.6701      -2867.982          26.699  
R04  21734843.781   116389085.594        -413.670          33.620  
R05  21773743.951   116393039.204        3330.154          35.239  
R10  22511033.136                       -3955.470          24.163  
R11  20419443.813   109115320.786        -474.843          30.468  
R12  22167328.578   118413966.945        3240.953          41.774  
R20  20054859.010                       -1515.528          23.154  
R21  20218978.892   108195932.037        2414.629          31.691  
> 2020  4 16 16 13 11.0003470  0 17
G10  24411053.279   128281064.837        4084.903          36.523  
G13  25132932.533                        2386.538          21.698  
G15  24693688.315                        2866.162          31.513  
G16  20883953.940   109745858.357         980.730          34.507  
G18  20833158.904   109479019.931       -1351.495          34.430  
G20  21868095.532   114917739.463        3064.151          31.667  
G21  21005384.275   110384121.726        -671.775          30.632  
G26  21046306.545   110599090.673       -1273.482          36.312  
G27  22568269.212   118597008.672        3333.572          31.304  
G29  23472440.268   123348462.705       -2866.755          25.456  
R04  21735003.270   116389820.306        -413.437          33.455  
R05  21773204.025   116390029.485        3330.354          33.766  
R10  22511855.767                       -3950.357          23.981  
R11  20419586.215   109116115.383        -474.261          29.400  
R12  22166775.461   118411045.581        3241.864          41.480  
R20  20055147.710                       -1516.706          22.299  
R21  20218584.665   108193837.658        2415.664          30.261  
> 2020  4 16 16 13 12.0003472  0 17
G10  24410342.472   128277294.856        4085.123          34.030  
G13  25132531.710                        2387.567          22.923  
G15  24693202.652   129763738.8591       2866.640          30.134  
G16  20883815.735   109745192.893         980.384          35.029  
G18  20833479.083   109480686.605       -1351.783          34.773  
G20  21867594.279   114914990.382        3064.337          34.945  
G21  21005564.750   110385108.467        -671.641          29.936  
G26  21046606.338   110600679.475       -1273.879          33.783  
G27  22567690.313   118593990.330        3333.614          34.097  
G29  23473051.545   123351644.194       -2866.569          28.278  
R04  21735135.479   116390555.205        -414.191          31.732  
R05  21772600.242   116387019.697        3330.453          33.485  
R10  22512677.797                       -3950.413          26.473  
R11  20419725.918   109116910.313        -475.178          31.431  
R12  22166233.136   118408124.105        3241.439          39.941  
R20  20055523.350                       -1515.138          22.426  
R21  20218210.824   108191743.080        2415.349          33.645  
> 2020  4 16 16 13 13.0003475  0 17
G10  24409659.245   128273682.120        4085.388          30.870  
G13  25132184.850                        2388.331          22.447  
G15  24692739.172   129761345.459        2866.146          28.771  
G16  20883721.600   109744685.276         979.925          35.295  
G18  20833825.343   109482510.882       -1351.842          33.984  
G20  21867105.018   114912398.838        3064.151          35.835  
G21  21005792.592   110386252.800        -671.462          30.630  
G26  21046939.707   110602425.966       -1273.788          31.441  
G27  22567153.685   118591129.367        3333.574          34.213  
G29  23473672.415   123354983.001       -2865.895          29.184  
R04  21735282.677   116391451.245        -414.430          29.458  
R05  21772083.101   116384170.434        3329.768          33.909  
R10  22513487.237                       -3950.708          25.380  
R11  20419899.798   109117865.846        -475.371          30.737  
R12  22165709.099   118405363.207        3241.166          39.262  
R20  20055875.306                       -1514.903          22.181  
R21  20217832.486   108189808.959        2415.204          34.172  
> 2020  4 16 16 13 14.0003477  0 18
G10  24408946.038   128269911.845        4084.611          31.045  
G13  25131761.544                        2389.311          22.775  
G15  24692254.408   129758794.676        2864.989          28.042  
G16  20883602.583   109744020.658         979.306          35.281  
G18  20834144.022   109484177.860       -1352.763          34.180  
G20  21866569.889   114909649.995        3062.616          33.803  
G21  21005982.361   110387239.660        -672.484          30.811  
G26  21047243.696   110604015.500       -1275.206          31.894  
G27  22566572.687   118588110.977        3333.032          33.633  
G29  23474276.796   123358164.358       -2866.852          28.522  
R03  24398934.769                       -3221.169          13.541  
R04  21735427.477   116392187.625        -416.611          28.758  
R05  21771520.990   116381161.304        3328.472          33.184  
R10  22514303.272                       -3953.600          24.425  
R11  20420064.683   109118662.062        -475.570          29.263  
R12  22165173.670   118402442.854        3240.420          40.285  
R20  20056250.347                       -1516.977          22.344  
R21  20217456.246   108187714.744        2414.638          33.800  
> 2020  4 16 16 13 15.0003479  0 17
G10  24408224.138   128266142.933        4083.709          35.979  
G13  25131373.912                        2385.582          24.379  
G15  24691769.344   129756245.659        2863.840          27.920  
G16  20883476.970   109743357.919         976.980          33.342  
G18  20834465.100   109485846.681       -1354.041          35.793  
G20  21866054.246   114906903.084        3060.812          32.010  
G21  21006168.532   110388228.478        -674.356          29.714  
G26  21047542.889   110605606.851       -1276.852          35.982  
G27  22566009.677   118585094.138        3330.718          31.674  
G29  23474879.679   123361347.121       -2867.109          27.442  
R04  21735560.285   116392926.036        -417.186          29.405  
R05  21770961.577   116378154.150        3328.443          32.590  
R10  22515110.913                       -3952.834          25.283  
R11  20420221.175   109119460.485        -479.102          29.267  
R12  22164627.148   118399524.301        3238.079          40.946  
R20  20056569.026                       -1517.684          23.779  
R21  20217067.715   108185622.092        2412.805          31.672  
> 2020  4 16 16 13 16.0003481  0 17
G10  24407509.133   128262375.448        4082.670          32.901  
G13  25130971.590                        2380.895          21.236  
G15  24691287.577                        2861.765          25.511  
G16  20883340.264                         978.916          32.653  
G18  20834793.073                       -1355.993          34.289  
G20  21865526.911                        3059.010          29.957  
G21  21006358.001                        -675.685          30.855  
G26  21047847.478   110607199.308       -1275.310          34.976  
G27  22565416.088                        3330.161          30.201  
G29  23475480.763                       -2871.101          27.158  
R04  21735685.898                        -419.190          29.287  
R05  21770377.881                        3322.200          31.780  
R10  22515884.078                       -3952.781          25.133  
R11  20420371.671                        -480.127          32.073  
R12  22164088.121   118396607.386        3235.971          36.357  
R20  20056890.104                       -1519.335          22.394  
R21  20216666.293                        2411.342          31.869  
> 2020  4 16 16 13 17.0003484  0 17
G10  24406828.604   128258764.328        4083.645          30.645  
G13  25130595.351                        2379.106          18.483  
G15  24690839.088                        2860.599          22.943  
G16  20883246.429                         975.981          32.964  
G18  20835130.339                       -1355.251          34.166  
G20  21865031.953                        3059.383          27.920  
G21  21006578.648                        -675.589          32.489  
G26  21048187.743   110608949.802       -1277.996          33.762  
G27  22564875.262                        3331.566          33.041  
G29  23476133.711                       -2867.985          26.391  
R04  21735850.184                        -417.921          32.607  
R05  21769840.653                        3324.434          34.144  
R10  22516708.207                       -3953.919          24.400  
R11  20420547.949                        -477.920          30.922  
R12  22163566.782   118393850.606        3236.306          32.032  
R20  20057295.124                       -1523.141          22.722  
R21  20216293.351                        2414.446          32.235  
> 2020  4 16 16 13 18.0003486  0 17
G10  24406103.106   128254996.077        4083.439          29.258  
G13  25130203.822                        2379.355          16.426  
G15  24690372.611                        2862.783          24.612  
G16  20883111.523                         975.365          35.216  
G18  20835436.428                       -1355.203          34.661  
G20  21864507.916                        3060.153          32.563  
G21  21006766.618                        -675.091          33.193  
G26  21048490.533   110610543.379       -1277.934          31.647  
G27  22564308.055                        3330.954          30.045  
G29  23476734.795                       -2869.148          24.864  
R04  21735975.797                        -418.531          30.660  
R05  21769293.532                        3325.282          34.609  
R10  22517519.446                       -3953.222          24.557  
R11  20420676.260                        -481.058          30.672  
R12  22163007.369   118390934.650        3236.157          29.370  
R20  20057611.105                       -1518.391          24.010  
R21  20215918.311                        2411.974          35.755  
> 2020  4 16 16 13 19.0003488  0 17
G10  24405379.407   128251227.249        4085.002          26.650  
G13  25129822.186                        2380.661          11.094  
G15  24689881.551                        2864.027          25.020  
G16  20882993.105                         976.477          32.824  
G18  20835759.604                       -1353.050          32.284  
G20  21864002.166                        3062.120          33.023  
G21  21006957.586                        -672.871          31.080  
G26  21048775.336                       -1279.405          27.072  
G27  22563725.258                        3331.929          30.629  
G29  23477358.363                       -2866.470          23.659  
R04  21736136.486                        -419.479          29.099  
R05  21768732.920                        3327.211          33.994  
R10  22518348.072                       -3956.070          22.811  
R11  20420847.741                        -481.566          30.007  
R12  22162480.634   118388018.518        3236.653          28.671  
R20  20058009.529                       -1513.999          22.762  
R21  20215504.897                        2412.843          32.780  
> 2020  4 16 16 13 20.0003490  0 17
G10  24404669.199   128247458.308        4084.172          33.714  
G13  25129433.955                        2381.967          20.730  
G15  24689411.476                        2862.842          31.601  
G16  20882872.288                         974.866          31.306  
G18  20836083.380                       -1355.634          35.581  
G20  21863475.731                        3060.450          30.592  
G21  21007145.256                        -674.993          33.931  
G26  21049086.521                       -1278.916          24.977  
G27  22563155.652                        3331.378          38.268  
G29  23477978.334                       -2868.040          24.414  
R04  21736280.386                        -421.779          32.143  
R05  21768162.115                        3324.708          33.761  
R10  22519109.845                       -3952.925          26.804  
R11  20420986.545                        -482.135          34.490  
R12  22161937.110   118385102.914        3235.465          37.415  
R20  20058291.034                       -1518.651          26.439  
R21  20215149.943                        2411.749          30.040  
> 2020  4 16 16 13 21.0003493  0 17
G10  24403975.479   128243846.789        4084.489          36.077  
G13  25129046.023                        2382.306          21.865  
G15  24688951.295                        2863.030          31.217  
G16  20882778.154   109739710.3531        974.280          31.607  
G18  20836431.439   109496185.3351      -1355.652          36.755  
G20  21862978.675                        3060.654          27.959  
G21  21007354.211   110394483.8451       -674.965          33.837  
G26  21049418.391                       -1280.292          22.967  
G27  22562611.829   118567312.8741       3331.521          38.961  
G29  23478626.485                       -2867.663          24.462  
R04  21736432.981                        -422.291          32.358  
R05  21767644.373   116360446.8101       3324.573          34.937  
R10  22519964.553                       -3953.044          28.144  
R11  20421174.215                        -482.967          34.167  
R12  22161412.473   118382347.763        3235.550          38.053  
R20  20058676.267                       -1519.021          27.040  
R21  20214778.500                        2411.985          29.717  
> 2020  4 16 16 13 22.0003495  0 17
G10  24403262.573   128240077.348        4084.380          36.441  
G13  25128659.891                        2385.527          22.599  
G15  24688462.633   129738726.7721       2862.503          31.587  
G16  20882645.645   109739051.167         973.813          31.753  
G18  20836748.919   109497856.158       -1356.033          37.235  
G20  21862453.139   114888001.9821       3059.995          27.856  
G21  21007549.076   110395473.992        -675.322          33.517  
G26  21049705.892                       -1278.071          21.774  
G27  22562037.726   118564296.446        3331.391          38.944  
G29  23479233.865                       -2869.669          25.127  
R04  21736583.776                        -423.033          33.335  
R05  21767070.870   116357443.014        3324.018          35.559  
R10  22520752.408                       -3953.064          29.943  
R11  20421319.015   109125393.9111       -483.718          34.227  
R12  22160860.855   118379432.701        3235.075          38.013  
R20  20059036.618                       -1519.024          27.543  
R21  20214386.372   108171305.4711       2411.372          29.380  
> 2020  4 16 16 13 23.0003497  0 18
G10  24402544.570   128236308.064        4084.420          36.299  
G13  25128274.358   132049948.1531       2382.703          23.442  
G15  24687991.659   129736179.474        2862.310          32.872  
G16  20882520.632   109738392.840         973.053          31.781  
G18  20837070.896   109499527.525       -1356.326          37.037  
G20  21861940.194   114885257.345        3059.549          27.591  
G21  21007731.650   110396464.603        -675.790          33.804  
G26  21050040.160                       -1275.569          22.616  
G27  22561459.427   118561280.362        3331.269          38.583  
G29  23479845.741                       -2868.184          24.444  
R03  24404910.232                       -3223.878          22.003  
R04  21736730.974   116399190.7931       -423.931          34.004  
R05  21766524.948   116354439.942        3323.476          35.780  
R10  22521551.055                       -3953.409          29.930  
R11  20421484.201   109126198.665        -484.630          34.516  
R12  22160329.023   118376518.476        3234.220          38.194  
R20  20059379.281                       -1519.234          27.418  
R21  20214014.329   108169215.297        2410.643          28.526  
> 2020  4 16 16 13 24.0003499  0 18
G10  24401824.169   128232538.989        4083.988          36.499  
G13  25127859.145                        2380.891          21.744  
G15  24687507.194   129733632.689        2861.661          33.975  
G16  20882398.316   109737735.193         972.505          32.252  
G18  20837382.380   109501199.449       -1357.001          36.952  
G20  21861406.563   114882513.247        3058.974          26.873  
G21  21007918.121   110397455.642        -676.240          33.697  
G26  21050333.957                       -1278.987          22.184  
G27  22560887.722   118558264.598        3330.756          38.245  
G29  23480439.030                       -2867.829          24.314  
R03  24405537.998                       -3226.282          22.594  
R04  21736871.277   116399936.451        -424.934          34.380  
R05  21765949.946   116351437.634        3322.341          35.838  
R10  22522343.706   120141235.8071      -3953.772          29.573  
R11  20421616.109   109127004.468        -485.744          34.235  
R12  22159771.409   118373605.004        3233.653          38.329  
R20  20059708.453   107268422.6371      -1520.093          27.592  
R21  20213597.917   108167125.456        2410.842          27.940  
> 2020  4 16 16 13 25.0003502  0 18
G10  24401139.742   128228927.554        4084.089          36.564  
G13  25127509.587                        2378.767          21.665  
G15  24687043.116   129731243.817        2861.393          34.467  
G16  20882309.578   109737235.819         971.777          32.788  
G18  20837728.641   109503029.406       -1357.563          36.758  
G20  21860904.711   114879927.175        3058.314          27.292  
G21  21008133.971   110398604.678        -676.571          33.549  
G26  21050685.614                       -1281.230          23.813  
G27  22560347.496   118555406.672        3330.495          38.242  
G29  23481095.276                       -2866.975          23.889  
R03  24406216.128                       -3225.080          23.240  
R04  21737043.358   116400843.655        -426.117          34.642  
R05  21765438.201   116348596.236        3321.841          35.666  
R10  22523176.529   120145669.614       -3954.036          29.712  
R11  20421811.574   109127971.403        -486.642          34.078  
R12  22159270.756   118370852.433        3232.856          38.608  
R20  20060134.158   107270423.795       -1520.603          28.183  
R21  20213261.850   108165196.646        2409.854          28.988  
> 2020  4 16 16 13 26.0003504  0 18
G10  24400416.043   128225158.571        4084.059          36.653  
G13  25127103.069                        2384.673          22.335  
G15  24686565.247   129728697.696        2861.252          34.462  
G16  20882184.564   109736579.492         971.479          32.538  
G18  20838045.221   109504702.158       -1357.640          36.520  
G20  21860383.072   114877183.841        3058.925          25.571  
G21  21008331.535   110399596.453        -676.866          34.090  
G26  21050977.312                       -1281.636          23.401  
G27  22559775.792   118552391.326        3330.513          38.472  
G29  23481735.033                       -2869.132          22.554  
R03  24406877.770                       -3229.119          19.939  
R04  21737170.470   116401591.166        -426.875          34.090  
R05  21764876.090   116345595.189        3321.466          35.342  
R10  22523974.577   120149943.707       -3954.327          29.562  
R11  20421962.669   109128778.899        -487.252          33.039  
R12  22158720.937   118367940.223        3232.519          38.244  
R20  20060454.636   107272264.917       -1520.155          28.546  
R21  20212854.432   108163107.702        2409.883          28.641  
> 2020  4 16 16 13 27.0003506  0 18
G10  24399700.739   128221389.452        4083.495          35.369  
G13  25126751.112                        2382.864          22.582  
G15  24686067.891   129726151.552        2861.694          33.994  
G16  20882066.746   109735923.478         971.159          32.268  
G18  20838359.704   109506375.058       -1358.037          36.797  
G20  21859874.024   114874440.644        3059.128          28.775  
G21  21008526.100   110400588.188        -676.541          34.295  
G26  21051300.188                       -1282.632          23.160  
G27  22559197.193   118549375.836        3330.734          38.837  
G29  23482353.205                       -2868.556          19.150  
R03  24407535.215                       -3229.432          19.897  
R04  21737322.465   116402339.181        -427.180          35.091  
R05  21764306.784   116342594.331        3321.859          33.259  
R10  22524788.513   120154217.744       -3954.528          29.247  
R11  20422108.069   109129587.026        -488.354          33.598  
R12  22158169.319   118365028.285        3232.224          37.553  
R20  20060793.402   107274106.228       -1520.838          28.828  
R21  20212462.903   108161018.876        2409.443          28.775  
> 2020  4 16 16 13 28.0003508  0 17
G10  24398985.434   128217619.899        4084.145          33.529  
G13  25126332.602                        2380.103          22.841  
G15  24685603.213   129723605.541        2860.451          33.561  
G16  20881930.340   109735267.919         970.313          32.842  
G18  20838676.285   109508048.110       -1358.332          36.662  
G20  21859343.691   114871698.137        3058.618          29.507  
G21  21008708.074   110401580.164        -677.139          34.819  
G26  21051575.098                       -1282.561          22.871  
G27  22558628.486   118546360.382        3330.287          39.385  
R03  24408191.161                       -3230.773          19.884  
R04  21737447.478   116403087.900        -428.280          34.978  
R05  21763725.187   116339593.912        3320.809          32.875  
R10  22525595.255   120158491.734       -3954.149          28.366  
R11  20422251.370   109130395.783        -489.171          33.353  
R12  22157618.600   118362116.826        3231.137          37.987  
R20  20061142.360   107275947.568       -1521.092          29.849  
R21  20212084.265   108158930.185        2408.901          29.443  
> 2020  4 16 16 13 29.0003511  0 17
G10  24398296.511   128214008.557        4083.481          34.530  
G13  25125977.348                        2380.667          23.858  
G15  24685140.033   129721217.857        2859.870          33.248  
G16  20881839.503   109734770.914         969.161          33.674  
G18  20839023.444   109509879.572       -1359.052          35.925  
G20  21858861.025   114869113.595        3056.518          29.302  
G21  21008926.323   110402730.325        -677.959          34.834  
G26  21051937.547                       -1282.408          22.347  
G27  22558080.766   118543503.077        3329.378          39.759  
R03  24408857.300                       -3231.259          17.168  
R04  21737618.660   116403998.377        -429.647          35.633  
R05  21763197.252   116336754.757        3319.227          32.761  
R10  22526405.294   120162926.340       -3954.677          28.386  
R11  20422455.228   109131365.978        -489.698          34.271  
R12  22157112.250   118359366.505        3230.244          38.481  
R20  20061510.505   107277950.019       -1521.774          29.790  
R21  20211743.401   108157002.599        2408.224          29.498  
> 2020  4 16 16 13 30.0003513  0 18
G10  24397575.810   128210239.854        4083.870          33.870  
G13  25125596.312                        2379.626          24.266  
G15  24684643.277   129718673.098        2859.928          33.036  
G16  20881711.492   109734117.266         968.092          33.396  
G18  20839345.421   109511554.155       -1359.768          35.875  
G20  21858339.387   114866372.099        3055.999          29.009  
G21  21009124.186   110403723.610        -678.561          35.608  
G26  21052242.736                       -1285.048          20.729  
G27  22557506.363   118540488.603        3329.448          39.453  
G29  23484172.046                       -2867.698          16.872  
R03  24409555.217                       -3231.587          18.108  
R04  21737757.763   116404749.471        -430.375          34.630  
R05  21762632.143   116333756.162        3319.177          32.002  
R10  22527206.040   120167201.565       -3955.459          28.782  
R11  20422595.831   109132177.269        -491.416          34.647  
R12  22156560.033   118356457.022        3229.435          38.339  
R20  20061842.076   107279792.891       -1522.746          28.912  
R21  20211347.675   108154915.401        2407.566          30.302  
> 2020  4 16 16 13 31.0003515  0 18
G10  24396855.708   128206471.295        4083.598          33.480  
G13  25125191.592                        2379.203          25.157  
G15  24684158.812   129716128.833        2858.831          32.311  
G16  20881582.881   109733464.184         967.995          34.087  
G18  20839664.700   109513229.185       -1360.257          36.312  
G20  21857824.343   114863630.949        3055.700          27.729  
G21  21009307.059   110404717.179        -678.697          35.796  
G26  21052521.543                       -1288.320          18.592  
G27  22556931.661   118537474.392        3329.361          39.582  
G29  23484775.228                       -2868.838          16.691  
R03  24410206.066                       -3231.666          21.096  
R04  21737904.062   116405501.477        -431.316          34.428  
R05  21762080.825   116330758.247        3317.842          30.578  
R10  22527986.400   120171477.015       -3955.667          28.301  
R11  20422762.216   109132989.350        -492.082          35.152  
R12  22156013.211   118353548.157        3228.793          38.076  
R20  20062173.346   107281636.038       -1522.667          28.654  
R21  20210958.844   108152828.475        2407.818          30.787  
> 2020  4 16 16 13 32.0003517  0 18
G10  24396133.508   128202702.904        4083.469          33.858  
G13  25124817.151   132031670.7491       2378.747          26.029  
G15  24683679.744   129713584.877        2859.180          31.611  
G16  20881461.165   109732811.893         967.209          33.763  
G18  20839986.977   109514904.698       -1360.428          36.847  
G20  21857305.402   114860890.310        3055.276          27.305  
G21  21009489.933   110405711.208        -678.852          35.654  
G26  21052791.356                       -1287.818          18.415  
G27  22556363.854   118534460.471        3329.102          39.741  
G29  23485392.201                       -2868.230          13.844  
R03  24410949.251                       -3231.982          21.147  
R04  21738039.568   116406254.430        -432.356          35.254  
R05  21761525.010   116327761.049        3317.323          30.374  
R10  22528815.925   120175752.798       -3955.662          28.610  
R11  20422903.418   109133802.450        -492.712          35.664  
R12  22155472.386   118350639.994        3228.131          37.823  
R20  20062544.789   107283479.729       -1523.037          28.765  
R21  20210556.823   108150742.091        2407.185          30.946  
> 2020  4 16 16 13 33.0003520  0 16
G10  24395450.881   128199092.121        4083.669          33.345  
G13  25124431.618   132029764.893        2378.129          27.400  
G15  24683197.978   129711199.105        2857.523          30.099  
G16  20881368.230   109732317.883         966.130          33.753  
G18  20840344.929   109516738.300       -1361.419          37.162  
G20  21856805.349   114858307.704        3054.858          28.421  
G21  21009718.375   110406863.257        -679.708          35.531  
G26  21053152.606                       -1286.941          20.811  
G27  22555816.133   118531604.413        3328.456          39.578  
R04  21738203.855   116407168.883        -433.510          34.188  
R05  21760956.903   116324924.842        3316.625          29.579  
R10  22529643.352   120180188.885       -3956.599          28.421  
R11  20423080.895   109134776.728        -494.221          35.752  
R12  22154958.242   118347892.718        3227.207          38.116  
R20  20062908.138   107285484.236       -1523.810          28.873  
R21  20210177.585   108148816.582        2406.599          29.799  
> 2020  4 16 16 13 34.0003522  0 16
G10  24394723.584   128195324.111        4083.273          32.958  
G13  25124046.684   132027702.099        2377.511          28.225  
G15  24682731.201   129708656.022        2857.784          29.665  
G16  20881259.405   109731667.123         965.527          33.646  
G18  20840656.414   109518414.907       -1361.574          37.054  
G20  21856304.995   114855568.106        3054.722          28.389  
G21  21009908.743   110407858.224        -679.975          35.825  
G26  21053460.193                       -1287.909          19.407  
G27  22555244.729   118528591.111        3328.449          39.243  
R04  21738349.554   116407923.794        -434.267          34.243  
R05  21760389.096   116321929.098        3316.224          27.234  
R10  22530442.000   120184465.361       -3956.468          28.592  
R11  20423246.980   109135591.812        -494.958          35.661  
R12  22154417.116   118344986.084        3226.603          38.607  
R20  20063244.505   107287328.921       -1524.003          28.556  
R21  20209774.664   108146731.238        2406.077          28.516  
> 2020  4 16 16 13 35.0003524  0 17
G10  24394007.080   128191556.243        4082.849          32.405  
G13  25123672.843   132025639.919        2376.716          27.775  
G15  24682251.533   129706113.410        2857.461          29.754  
G16  20881124.498   109731017.049         964.811          33.307  
G18  20840980.190   109520092.047       -1362.213          37.035  
G20  21855779.759   114852829.063        3053.839          28.304  
G21  21010097.312   110408853.601        -680.417          35.855  
G26  21053790.564                       -1288.159          18.190  
G27  22554672.425   118525578.144        3327.764          39.588  
R03  24412929.081                       -3233.338          22.989  
R04  21738483.561   116408679.751        -435.479          35.221  
R05  21759861.461   116318934.157        3314.805          27.786  
R10  22531232.552   120188742.265       -3957.569          29.157  
R11  20423386.983   109136407.913        -496.160          35.648  
R12  22153867.896   118342080.189        3225.835          38.062  
R20  20063600.059   107289174.159       -1524.993          28.823  
R21  20209375.041   108144646.349        2405.597          28.027  
> 2020  4 16 16 13 36.0003526  0 17
G10  24393292.075   128187788.447        4082.876          33.245  
G13  25123273.220   132023578.116        2376.813          28.420  
G15  24681772.764   129703571.239        2857.317          30.136  
G16  20880995.588   109730367.712         964.415          33.196  
G18  20841303.366   109521769.720       -1362.883          37.247  
G20  21855245.828   114850090.477        3053.347          28.168  
G21  21010294.276   110409849.463        -681.009          36.094  
G26  21054091.556                       -1289.036          17.989  
G27  22554100.121   118522565.449        3327.546          39.509  
R03  24413638.390                       -3230.778          20.429  
R04  21738621.765   116409436.613        -436.332          35.393  
R05  21759247.786   116315648.765        3314.293          26.947  
R10  22532069.273   120193019.394       -3957.524          28.956  
R11  20423547.073   109137225.035        -497.419          35.741  
R12  22153330.668   118339175.016        3224.982          38.026  
R20  20063932.529   107291019.801       -1525.229          28.609  
R21  20208973.019   108142562.014        2405.064          27.352  
> 2020  4 16 16 13 37.0003529  0 18
G10  24392608.249   128184178.450        4082.682          33.198  
G13  25122889.486   132021674.567        2375.864          28.825  
G15  24681311.983   129701187.186        2856.804          29.864  
G16  20880906.549   109729876.719         963.488          33.216  
G18  20841655.022   109523605.470       -1363.281          37.104  
G20  21854757.766   114847509.932        3052.769          28.562  
G21  21010507.428   110411003.302        -681.249          35.924  
G26  21054406.338                       -1290.249          19.445  
G27  22553552.700   118519710.641        3327.397          39.474  
G29  23488394.023                       -2869.229          14.551  
R03  24414323.116                       -3231.101          18.503  
R04  21738816.630   116410355.077        -437.019          36.007  
R05  21758743.236   116312815.425        3313.865          27.109  
R10  22532883.210   120197456.879       -3957.720          29.039  
R11  20423731.145   109138203.364        -498.282          34.928  
R12  22152816.824   118336430.796        3224.260          37.927  
R20  20064330.953   107293026.328       -1525.827          28.689  
R21  20208619.564   108140638.507        2404.555          28.196  
> 2020  4 16 16 13 38.0003531  0 18
G10  24391908.233   128180410.911        4082.286          33.825  
G13  25122502.453   132019613.736        2375.650          29.114  
G15  24680831.716   129698645.789        2856.021          28.969  
G16  20880783.634   109729228.705         962.820          32.794  
G18  20841978.499   109525284.019       -1363.859          37.307  
G20  21854226.534   114844772.133        3052.888          27.788  
G21  21010701.094   110411999.891        -681.813          35.849  
G26  21054731.313                       -1291.102          20.328  
G27  22552984.893   118516698.408        3327.079          39.616  
G29  23488994.807                       -2869.389          14.285  
R03  24414996.749                       -3230.322          19.150  
R04  21738959.032   116411113.797        -438.373          36.505  
R05  21758208.706   116310094.396        3313.303          25.562  
R10  22533684.855   120201734.672       -3958.312          29.063  
R11  20423876.544   109139022.271        -499.272          34.230  
R12  22152270.302   118333526.937        3223.827          37.694  
R20  20064666.720   107294872.771       -1526.253          29.295  
R21  20208251.119   108138554.975        2403.986          29.056  
> 2020  4 16 16 13 39.0003533  0 17
G10  24391183.635   128176643.563        4082.247          33.577  
G13  25122111.224   132017553.550        2374.975          28.849  
G15  24680352.048   129696104.902        2855.467          28.562  
G16  20880661.919   109728581.539         962.091          33.345  
G18  20842290.882   109526963.164       -1364.239          37.292  
G20  21853729.478   114842035.073        3051.845          28.106  
G21  21010892.362   110412996.967        -682.155          36.197  
G26  21055051.791                       -1288.992          22.615  
G27  22552406.294   118513686.573        3326.739          39.690  
R03  24415631.110                       -3231.172          19.727  
R04  21739090.641   116411873.490        -439.010          36.004  
R05  21757635.502   116307102.030        3312.663          26.605  
R10  22534492.795   120206012.749       -3958.107          28.226  
R11  20424017.447   109139842.243        -499.737          32.660  
R12  22151729.777   118330623.952        3223.014          38.116  
R20  20065030.369   107296719.859       -1526.997          29.191  
R21  20207870.982   108136471.996        2403.640          28.727  
> 2020  4 16 16 13 40.0003535  0 17
G10  24390458.737   128172876.285        4082.068          33.519  
G13  25121728.389   132015493.805        2374.336          28.860  
G15  24679874.179   129693564.371        2855.368          28.246  
G16  20880534.807   109727935.000         961.311          34.113  
G18  20842608.962   109528642.793       -1364.857          36.677  
G20  21853183.856   114839298.367        3051.600          27.002  
G21  21011081.231   110413994.438        -682.457          36.103  
G26  21055323.103                       -1286.581          20.771  
G27  22551836.389   118510674.953        3326.607          39.748  
R03  24416262.773                       -3232.032          20.878  
R04  21739239.937   116412634.186        -440.250          35.743  
R05  21757071.293                        3313.108          24.742  
R10  22535308.830   120210291.254       -3959.365          28.335  
R11  20424155.951   109140663.217        -501.026          31.693  
R12  22151183.555   118327721.598        3222.580          38.224  
R20  20065374.230   107298567.275       -1527.145          29.755  
R21  20207480.952   108134389.475        2403.114          29.009  
> 2020  4 16 16 13 41.0003538  0 17
G10  24389775.510   128169266.732        4082.381          33.360  
G13  25121352.749   132013592.161        2374.165          28.582  
G15  24679416.695   129691181.828        2854.786          29.557  
G16  20880448.766   109727446.789         960.688          34.396  
G18  20842954.323   109530480.480       -1365.315          36.515  
G20  21852701.190   114836719.720        3051.034          26.060  
G21  21011295.283   110415149.919        -683.025          35.991  
G26  21055651.975                       -1289.306          19.849  
G27  22551296.762   118507821.184        3326.336          39.978  
R03  24416979.577                       -3238.623          20.808  
R04  21739386.236   116413556.393        -441.094          34.880  
R05  21756553.851                        3312.169          24.219  
R10  22536133.859   120214730.000       -3959.403          29.049  
R11  20424357.112   109141645.346        -502.129          32.336  
R12  22150674.207   118324980.158        3221.574          37.908  
R20  20065741.176   107300575.518       -1527.258          29.953  
R21  20207127.197   108132467.830        2402.699          29.543  
> 2020  4 16 16 13 42.0003540  0 17
G10  24389055.108   128165499.572        4082.399          33.111  
G13  25120951.627   132011533.304        2373.781          27.808  
G15  24678922.338   129688641.906        2854.913          29.610  
G16  20880326.451   109726801.553         960.145          33.806  
G18  20843274.501   109532160.915       -1365.529          36.976  
G20  21852182.849                        3051.845          24.464  
G21  21011479.955   110416148.048        -682.955          35.487  
G26  21055947.871                       -1290.199          20.498  
G27  22550722.060   118504809.992        3326.266          40.113  
R03  24417696.980                       -3236.822          20.712  
R04  21739541.229   116414318.826        -441.832          34.754  
R05  21756034.311                        3310.361          24.985  
R10  22536952.293   120219008.973       -3959.488          29.459  
R11  20424499.513   109142468.077        -502.799          31.005  
R12  22150136.080   118322079.080        3221.039          37.983  
R20  20066081.441   107302423.761       -1527.742          30.206  
R21  20206729.372   108130386.005        2402.541          30.178  
> 2020  4 16 16 13 43.0003542  0 17
G10  24388351.196   128161732.573        4082.003          33.544  
G13  25120567.893   132009474.861        2373.225          27.186  
G15  24678434.275   129686102.449        2854.352          29.331  
G16  20880193.943   109726157.000         959.300          33.103  
G18  20843591.382   109533841.848       -1365.959          36.671  
G20  21851677.698                        3050.072          25.539  
G21  21011672.122   110417146.656        -683.898          35.425  
G26  21056271.347                       -1293.318          21.671  
G27  22550143.760   118501799.027        3325.932          39.938  
R03  24418316.951                       -3233.297          21.563  
R04  21739680.632   116415082.279        -443.006          34.311  
R05  21755447.917                        3310.041          25.607  
R10  22537741.346   120223288.183       -3959.727          29.702  
R11  20424660.502   109143291.714        -503.576          30.470  
R12  22149584.762   118319178.702        3220.338          38.480  
R20  20066423.504   107304272.472       -1528.467          30.353  
R21  20206342.040   108128304.681        2401.961          30.582  
> 2020  4 16 16 13 44.0003544  0 17
G10  24387627.497   128157965.676        4081.974          33.418  
G13  25120183.859   132007417.093        2372.651          28.477  
G15  24677954.907   129683563.393        2854.224          29.494  
G16  20880078.223   109725513.220         958.689          33.738  
G18  20843916.057   109535523.338       -1366.478          36.384  
G20  21851131.476                        3049.846          23.748  
G21  21011868.786   110418145.668        -684.139          35.579  
G26  21056579.833                       -1295.369          21.812  
G27  22549574.754   118498788.411        3325.605          40.099  
R03  24418982.490                       -3238.576          18.782  
R04  21739817.937   116415846.586        -443.699          34.711  
R05  21754901.995                        3309.237          26.503  
R10  22538549.287   120227567.786       -3959.864          29.414  
R11  20424801.104   109144116.422        -505.062          29.823  
R12  22149049.332   118316279.111        3219.634          38.575  
R20  20066792.249   107306121.659       -1528.889          30.341  
R21  20205967.000   108126223.928        2401.138          30.229  
> 2020  4 16 16 13 45.0003547  0 17
G10  24386951.465   128154356.365        4081.955          34.328  
G13  25119826.806   132005517.121        2372.220          28.931  
G15  24677497.724   129681182.239        2853.580          28.078  
G16  20879988.884   109725027.516         957.897          33.135  
G18  20844262.617   109537362.701       -1367.066          37.129  
G20  21850626.926                        3049.506          23.228  
G21  21012093.330   110419302.476        -684.569          35.732  
G26  21056917.699                       -1293.311          23.608  
G27  22549027.333   118495935.429        3325.405          39.428  
R03  24419691.799                       -3238.704          13.961  
R04  21739992.416   116416772.262        -444.578          35.250  
R05  21754391.448                        3310.205          23.883  
R10  22539375.515   120232007.482       -3960.250          29.682  
R11  20424985.777   109145102.048        -505.677          29.825  
R12  22148541.184   118313540.203        3218.975          38.276  
R20  20067153.799   107308131.451       -1529.125          30.838  
R21  20205621.339   108124303.802        2401.185          31.019  
> 2020  4 16 16 13 46.0003549  0 17
G10  24386233.162   128150589.709        4081.780          34.525  
G13  25119433.778   132003460.195        2371.640          28.172  
G15  24677025.251   129678643.961        2853.056          28.554  
G16  20879862.972   109724385.103         957.212          33.410  
G18  20844583.095   109539045.085       -1367.419          36.595  
G20  21850141.262                        3049.130          25.413  
G21  21012274.705   110420302.250        -684.816          35.473  
G26  21057208.198                       -1293.889          23.493  
G27  22548450.832   118492925.250        3325.419          39.790  
R03  24420312.969                       -3238.483          19.972  
R04  21740151.306   116417538.457        -445.617          35.109  
R05  21753801.157                        3305.374          24.210  
R10  22540165.768   120236287.617       -3959.989          28.916  
R11  20425154.860   109145928.574        -506.376          29.791  
R12  22147991.065   118310641.935        3218.323          38.468  
R20  20067497.660   107309981.448       -1529.369          30.873  
R21  20205197.133   108122223.847        2400.837          31.407  
> 2020  4 16 16 13 47.0003551  0 16
G10  24385513.960   128146823.170        4081.335          33.983  
G13  25119044.947   132001403.782        2371.372          28.292  
G15  24676544.983   129676106.084        2852.571          27.991  
G16  20879743.654   109723743.350         956.275          33.212  
G18  20844905.972   109540727.948       -1368.042          36.917  
G20  21849599.537                        3048.696          24.178  
G21  21012465.373   110421302.431        -685.406          34.832  
G27  22547879.428   118489915.369        3324.787          39.825  
R03  24420974.911                       -3235.670          21.693  
R04  21740302.102   116418305.541        -446.543          36.082  
R05  21753217.461                        3306.508          24.133  
R10  22540991.696   120240568.158       -3961.191          28.766  
R11  20425291.865   109146756.022        -507.262          28.589  
R12  22147464.629   118307744.357        3217.477          38.961  
R20  20067842.122   107311831.890       -1530.044          30.649  
R21  20204832.286   108120144.303        2400.186          31.676  
> 2020  4 16 16 13 48.0003553  0 18
G10  24384804.951   128143056.809        4081.277          34.197  
G13  25118651.020   131999347.967        2370.745          27.537  
G15  24676066.515   129673568.619        2852.452          27.943  
G16  20879616.242   109723102.390         955.400          33.502  
G18  20845231.846   109542411.344       -1368.487          37.386  
G20  21849101.282                        3047.399          25.743  
G21  21012656.341   110422303.052        -685.830          35.625  
G26  21057814.978                       -1289.975          20.057  
G27  22547304.726   118486905.799        3324.462          39.155  
G29  23495185.821                       -2874.085          22.838  
R03  24421662.935                       -3237.319          20.577  
R04  21740443.004   116419073.640        -447.402          36.532  
R05  21752652.652                        3306.274          25.539  
R10  22541778.951   120244848.943       -3960.781          29.749  
R11  20425464.845   109147584.491        -508.645          29.178  
R12  22146909.114   118304847.549        3216.637          38.453  
R20  20068210.867   107313682.809       -1530.600          31.096  
R21  20204449.151   108118065.243        2399.606          31.637  
> 2020  4 16 16 13 49.0003556  0 18
G10  24384115.128   128139448.077        4081.484          34.203  
G13  25118293.667   131997450.107        2370.170          28.030  
G15  24675605.434   129671189.204        2851.936          28.522  
G16  20879526.904   109722619.618         954.967          33.032  
G18  20845570.612   109544252.804       -1369.068          37.245  
G20  21848598.830                        3046.650          24.288  
G21  21012866.495   110423461.655        -686.163          34.717  
G26  21058160.339                       -1290.609          19.227  
G27  22546768.997   118484054.038        3324.348          39.531  
G29  23495809.989                       -2874.385          22.106  
R03  24422400.124                       -3237.713          19.624  
R04  21740615.385   116420003.246        -448.350          36.781  
R05  21752143.604                        3306.059          28.034  
R10  22542633.659   120249290.078       -3961.522          29.160  
R11  20425654.014   109148574.201        -509.579          29.274  
R12  22146393.171   118302111.633        3215.917          37.857  
R20  20068569.418   107315694.535       -1531.022          31.176  
R21  20204088.800   108116147.116        2399.136          31.245  
> 2020  4 16 16 13 50.0003558  0 18
G10  24383401.922   128135681.926        4081.206          33.951  
G13  25117890.146   131995395.168        2369.622          27.691  
G15  24675132.361   129668652.485        2851.766          28.919  
G16  20879396.195   109721979.982         954.403          32.004  
G18  20845897.985   109545937.142       -1369.376          37.592  
G20  21848085.585                        3046.507          24.378  
G21  21013063.459   110424463.055        -686.443          34.744  
G26  21058457.133                       -1292.429          20.108  
G27  22546195.194   118481044.952        3324.129          39.638  
G29  23496418.868                       -2875.935          21.642  
R03  24423054.571                       -3239.079          20.056  
R04  21740736.801   116420773.210        -449.309          36.726  
R05  21751538.323                        3305.505          25.710  
R10  22543430.808   120253571.385       -3961.345          28.596  
R11  20425820.399   109149404.509        -510.649          29.554  
R12  22145856.243   118299216.175        3215.372          37.654  
R20  20068933.367   107317546.316       -1531.435          31.045  
R21  20203702.368   108114068.924        2399.114          30.335  
> 2020  4 16 16 13 51.0003560  0 18
G10  24382676.125   128131915.903        4080.673          34.028  
G13  25117492.921   131993340.711        2369.121          27.588  
G15  24674653.593   129666116.228        2850.922          29.116  
G16  20879276.278   109721341.002         953.923          32.904  
G18  20846209.769   109547621.935       -1370.065          37.654  
G20  21847558.850                        3048.871          23.212  
G21  21013241.536   110425464.814        -686.691          34.383  
G26  21058773.415                       -1293.945          20.820  
G27  22545623.789   118478036.107        3323.710          39.995  
G29  23497021.151                       -2875.415          22.415  
R03  24423698.226                       -3238.622          20.116  
R04  21740901.087   116421544.078        -450.273          36.793  
R05  21751037.370                        3304.505          27.313  
R10  22544205.771   120257853.072       -3962.017          29.324  
R11  20425978.090   109150235.805        -511.632          29.482  
R12  22145302.826   118296321.418        3214.575          37.373  
R20  20069259.241   107319398.524       -1531.932          30.990  
R21  20203296.749   108111991.201        2398.405          31.025  
> 2020  4 16 16 13 52.0003562  0 18
G10  24381970.113   128128149.874        4081.204          33.955  
G13  25117111.286   131991286.730        2368.986          28.252  
G15  24674170.028   129663580.265        2851.046          30.043  
G16  20879148.266   109720702.724         953.286          32.849  
G18  20846535.644   109549307.197       -1370.409          37.342  
G20  21847047.404                        3047.171          23.304  
G21  21013442.696   110426466.971        -687.211          34.031  
G26  21059070.809                       -1295.321          20.551  
G27  22545051.785   118475027.505        3323.563          39.809  
G29  23497602.748                       -2874.910          23.080  
R03  24424368.262                       -3237.028          22.964  
R04  21741032.996   116422315.827        -451.090          36.452  
R05  21750451.875   116268776.0561       3303.778          25.384  
R10  22545029.001   120262135.003       -3961.979          29.733  
R11  20426136.080   109151067.942        -512.411          29.411  
R12  22144762.900   118293427.402        3213.952          36.891  
R20  20069618.392   107321251.180       -1532.310          30.961  
R21  20202901.023   108109913.908        2397.956          30.530  
> 2020  4 16 16 13 53.0003565  0 18
G10  24381289.884   128124541.564        4081.001          34.755  
G13  25116747.637   131989390.806        2367.871          28.397  
G15  24673707.448   129661202.294        2850.677          29.966  
G16  20879051.733   109720222.684         952.566          32.646  
G18  20846890.598   109551150.463       -1370.792          37.643  
G20  21846547.350                        3045.850          24.770  
G21  21013653.151   110427627.057        -687.460          34.569  
G26  21059405.377                       -1295.175          20.916  
G27  22544512.759   118472176.685        3323.387          40.157  
G29  23498249.101                       -2875.882          22.797  
R03  24425064.080                       -3236.928          24.244  
R04  21741197.282   116423249.095        -452.047          35.981  
R05  21749953.920   116265953.246        3302.847          25.054  
R10  22545883.410   120266850.215       -3962.864          29.080  
R11  20426319.553   109152061.290        -513.319          29.884  
R12  22144257.150   118290694.132        3213.359          37.052  
R20  20069983.540   107323264.530       -1532.632          30.593  
R21  20202547.268   108107997.515        2397.489          31.225  
> 2020  4 16 16 13 54.0003567  0 18
G10  24380564.986   128120775.764        4080.956          34.911  
G13  25116351.612   131987337.755        2368.115          28.771  
G15  24673226.880   129658667.115        2849.949          29.718  
G16  20878931.516   109719585.753         951.517          32.318  
G18  20847213.474   109552836.633       -1371.396          37.869  
G20  21846036.204                        3045.040          24.968  
G21  21013856.410   110428629.976        -688.119          34.241  
G26  21059720.759                       -1297.457          21.183  
G27  22543934.759   118469168.547        3323.085          39.523  
G29  23498848.086                       -2875.609          22.285  
R03  24425717.028                       -3240.321          23.704  
R04  21741353.774   116424022.697        -452.911          36.306  
R05  21749380.117   116262970.861        3302.416          27.404  
R10  22546651.778   120271132.670       -3962.933          28.527  
R11  20426473.647   109152895.264        -514.245          30.646  
R12  22143700.735   118287801.388        3212.691          37.340  
R20  20070330.699   107325117.972       -1533.011          30.501  
R21  20202154.539   108105921.085        2397.364          30.678  
> 2020  4 16 16 13 55.0003569  0 18
G10  24379850.581   128117010.083        4080.794          34.498  
G13  25115965.779   131985285.216        2367.248          29.163  
G15  24672753.208   129656132.334        2849.678          29.578  
G16  20878812.199   109718949.472         950.937          32.530  
G18  20847533.353   109554523.236       -1371.731          37.821  
G20  21845508.269                        3044.370          25.139  
G21  21014047.078   110429633.238        -688.411          34.767  
G26  21060046.933                       -1297.448          22.892  
G27  22543365.153   118466160.644        3322.841          39.547  
G29  23499443.774                       -2875.603          20.297  
R03  24426416.444                       -3240.509          24.491  
R04  21741491.379   116424797.193        -453.822          36.915  
R05  21748837.793   116259989.170        3301.518          28.322  
R10  22547462.117   120275415.399       -3963.000          28.664  
R11  20426643.029   109153730.248        -514.996          32.070  
R12  22143173.400   118284909.272        3212.239          37.321  
R20  20070682.656   107326971.809       -1533.252          30.234  
R21  20201770.206   108103844.995        2396.953          30.973  
> 2020  4 16 16 13 56.0003571  0 18
G10  24379128.980   128113244.552        4080.582          34.851  
G13  25115576.049   131983233.141        2367.131          28.651  
G15  24672248.058   129653597.993        2849.030          28.964  
G16  20878694.381   109718313.987         950.232          32.757  
G18  20847856.229   109556210.407       -1372.215          37.920  
G20  21845005.817                        3044.272          25.991  
G21  21014234.748   110430636.979        -688.664          34.831  
G26  21060348.524                       -1302.312          22.810  
G27  22542789.552   118463153.046        3322.762          39.453  
G29  23500061.046                       -2876.768          18.445  
R03  24427077.786                       -3240.554          25.375  
R04  21741657.464   116425572.672        -454.655          37.334  
R05  21748269.686   116257008.186        3300.852          27.347  
R10  22548291.942   120279698.509       -3963.078          27.822  
R11  20426768.642   109154566.180        -516.105          32.731  
R12  22142626.878   118282017.970        3211.489          37.258  
R20  20071021.421   107328826.235       -1534.226          30.328  
R21  20201394.566   108101769.549        2396.244          31.456  
> 2020  4 16 16 13 57.0003574  0 18
G10  24378438.258   128109636.845        4080.417          34.653  
G13  25115207.004   131981339.313        2366.227          28.622  
G15  24671814.258   129651221.686        2848.936          29.298  
G16  20878607.441   109717836.838         949.424          32.647  
G18  20848203.089   109558055.732       -1372.811          38.026  
G20  21844524.350   114793631.3951       3043.680          26.045  
G21  21014465.288   110431798.807        -689.279          34.810  
G26  21060699.881                       -1301.151          24.641  
G27  22542251.424   118460303.430        3322.266          39.587  
G29  23500710.397                       -2875.604          18.827  
R03  24427774.204                       -3241.844          25.893  
R04  21741803.163   116426509.779        -455.933          36.280  
R05  21747703.978   116254188.149        3300.514          27.016  
R10  22549116.971   120284142.053       -3963.945          29.286  
R11  20426977.897   109155563.489        -517.329          33.300  
R12  22142124.126   118279287.696        3210.557          37.145  
R20  20071392.564   107330841.426       -1534.328          30.251  
R21  20201019.825   108099855.063        2395.696          31.803  
> 2020  4 16 16 13 58.0003576  0 18
G10  24377737.643   128105871.680        4080.208          34.411  
G13  25114819.073   131979288.406        2366.152          28.267  
G15  24671336.089   129648688.240        2848.752          28.761  
G16  20878483.627   109717202.866         948.788          32.619  
G18  20848521.769   109559743.986       -1373.363          37.659  
G20  21843987.422   114790903.015        3043.242          26.101  
G21  21014655.657   110432803.472        -689.662          34.716  
G26  21061018.860                       -1301.628          25.542  
G27  22541680.020   118457296.506        3322.047          39.312  
G29  23501316.577                       -2876.399          22.365  
R03  24428391.476                       -3242.726          23.831  
R04  21741963.552   116427287.308        -456.975          37.099  
R05  21747202.125   116251208.586        3300.422          26.793  
R10  22549913.520   120288425.880       -3963.911          29.942  
R11  20427117.001   109156401.450        -518.000          32.852  
R12  22141571.609   118276397.914        3209.906          36.828  
R20  20071736.126   107332696.822       -1534.844          30.214  
R21  20200639.089   108097780.599        2395.319          31.773  
> 2020  4 16 16 13 59.0003578  0 18
G10  24377006.450   128102106.799        4079.812          34.159  
G13  25114433.539   131977238.057        2365.419          28.436  
G15  24670851.925   129646155.340        2847.694          29.623  
G16  20878361.011   109716569.678         948.058          32.641  
G18  20848841.947   109561432.855       -1374.102          37.456  
G20  21843471.779   114788175.271        3042.925          26.649  
G21  21014848.423   110433808.677        -690.240          35.225  
G26  21061340.238                       -1302.230          26.260  
G27  22541107.716   118454289.993        3321.342          39.623  
G29  23501918.560                       -2877.656          20.856  
R03  24429053.418                       -3243.500          21.993  
R04  21742109.251   116428065.877        -458.048          36.400  
R05  21746650.807   116248229.880        3298.822          28.391  
R10  22550701.974   120292710.270       -3964.867          29.330  
R11  20427276.791   109157240.458        -519.155          33.222  
R12  22141037.679   118273509.021        3208.819          36.410  
R20  20072109.668   107334552.817       -1535.792          30.491  
R21  20200242.463   108095706.734        2394.305          31.792  
> 2020  4 16 16 14  0.0003580  0 18
G10  24376292.044   128098342.054        4079.802          34.775  
G13  25114032.717   131975188.277        2364.739          26.971  
G15  24670373.756   129643622.871        2847.426          30.496  
G16  20878242.593   109715937.263         947.401          32.266  
G18  20849169.620   109563122.219       -1374.319          37.800  
G20  21842964.231   114785448.074        3042.282          26.227  
G21  21015039.991   110434814.330        -690.645          35.321  
G26  21061642.728                       -1302.885          26.588  
G27  22540523.121   118451283.752        3321.325          39.174  
G29  23502524.441                       -2876.678          22.985  
R03  24429784.612                       -3243.414          22.668  
R04  21742243.858   116428845.371        -458.838          36.042  
R05  21746099.788   116245251.839        3298.333          27.320  
R10  22551520.107   120296994.907       -3965.204          29.350  
R11  20427431.783   109158080.509        -520.039          33.376  
R12  22140497.153   118270620.801        3208.060          36.241  
R20  20072452.930   107336409.233       -1535.805          30.697  
R21  20199856.630   108093633.306        2393.998          32.517  
> 2020  4 16 16 14  1.0003582  0 18
G10  24375579.737   128094577.438        4079.609          35.167  
G13  25113653.180   131973139.081        2364.107          27.019  
G15  24669892.889   129641090.781        2847.293          30.467  
G16  20878128.672   109715305.559         946.254          32.534  
G18  20849487.400   109564812.098       -1375.052          37.624  
G20  21842433.898   114782721.315        3041.672          26.686  
G21  21015227.661   110435820.394        -691.286          35.591  
G26  21061951.514   110681159.4321      -1303.595          26.331  
G27  22539961.309   118448277.775        3320.979          39.095  
G29  23503107.537                       -2873.972          21.396  
R03  24430465.441                       -3241.197          20.387  
R04  21742412.341   116429625.880        -459.806          36.530  
R05  21745543.673   116242274.466        3297.484          28.543  
R10  22552306.163   120301279.815       -3965.111          29.340  
R11  20427592.472   109158921.504        -521.239          33.842  
R12  22139956.927   118267733.244        3207.638          36.199  
R20  20072774.607   107338266.162       -1536.628          30.132  
R21  20199484.588   108091560.347        2393.293          32.421  
> 2020  4 16 16 14  2.0003585  0 18
G10  24374885.418   128090970.328        4079.653          34.393  
G13  25113289.831   131971247.662        2363.878          27.448  
G15  24669439.303   129638716.504        2846.659          31.339  
G16  20878040.833   109714831.943         945.736          33.231  
G18  20849839.057   109566659.858       -1375.519          37.680  
G20  21841944.636   114780152.430        3041.244          25.810  
G21  21015454.004   110436984.234        -691.505          35.112  
G26  21062273.192   110682935.981       -1303.864          26.698  
G27  22539418.385   118445429.486        3320.785          39.357  
G29  23503764.682                       -2874.412          21.796  
R03  24431109.095                       -3247.125          21.125  
R04  21742575.728   116430567.689        -460.684          36.239  
R05  21744964.175   116239457.911        3297.235          26.591  
R10  22553162.970   120305724.897       -3965.568          29.500  
R11  20427787.637   109159923.509        -522.030          33.470  
R12  22139446.080   118265006.496        3207.000          36.375  
R20  20073168.834   107340283.616       -1536.633          30.150  
R21  20199132.032   108089648.086        2393.493          32.710  
> 2020  4 16 16 14  3.0003587  0 18
G10  24374177.608   128087205.918        4079.225          35.162  
G13  25112909.694   131969199.391        2363.209          27.835  
G15  24668961.733   129636185.186        2846.148          31.559  
G16  20877925.113   109714201.571         945.181          33.379  
G18  20850159.835   109568350.658       -1376.080          37.419  
G20  21841427.494   114777426.587        3040.594          26.738  
G21  21015639.875   110437991.040        -692.034          35.336  
G26  21062592.471   110684555.652       -1304.672          26.900  
G27  22538844.283   118442424.008        3320.303          39.294  
G29  23504366.366                       -2873.589          21.971  
R03  24431764.142                       -3248.682          17.933  
R04  21742739.715   116431350.045        -461.923          36.220  
R05  21744436.240   116236481.896        3296.543          27.875  
R10  22553952.923   120310010.436       -3966.106          29.298  
R11  20427952.823   109160766.388        -523.012          34.546  
R12  22138903.456   118262120.425        3206.049          36.069  
R20  20073515.994   107342141.383       -1537.446          30.074  
R21  20198758.490   108087576.033        2392.786          33.255  
> 2020  4 16 16 14  4.0003589  0 18
G10  24373451.810   128083441.811        4079.080          35.052  
G13  25112524.161   131967151.746        2362.415          28.459  
G15  24668464.078   129633654.453        2845.476          30.915  
G16  20877800.999   109713572.122         944.161          33.504  
G18  20850492.005   109570042.101       -1376.570          37.876  
G20  21840908.254   114774701.358        3039.911          26.674  
G21  21015837.738   110438998.418        -692.387          35.186  
G26  21062898.559   110686176.170       -1305.489          27.335  
G27  22538274.377   118439418.965        3319.901          38.810  
G29  23504970.747                       -2875.439          21.879  
R03  24432426.983                       -3248.525          17.704  
R04  21742874.022   116432133.448        -462.885          36.001  
R05  21743885.821   116233506.768        3295.223          26.998  
R10  22554760.564   120314296.509       -3966.734          29.461  
R11  20428108.415   109161610.355        -524.140          34.451  
R12  22138369.526   118259235.214        3205.137          35.991  
R20  20073855.659   107343999.692       -1537.834          30.364  
R21  20198350.473   108085504.576        2392.245          33.396  
> 2020  4 16 16 14  5.0003591  0 18
G10  24372745.499   128079677.900        4078.472          34.791  
G13  25112137.729   131965104.693        2361.480          29.004  
G15  24667995.202   129631124.157        2844.966          31.816  
G16  20877689.177   109712943.403         943.258          33.152  
G18  20850814.282   109571734.069       -1377.200          38.070  
G20  21840379.720   114771976.606        3039.918          24.963  
G21  21016025.708   110440006.279        -693.078          35.922  
G26  21063206.745   110687797.359       -1306.710          27.144  
G27  22537697.577   118436414.259        3319.454          38.915  
G29  23505593.716                       -2877.709          23.357  
R03  24433081.729                       -3247.782          17.938  
R04  21743022.119   116432917.903        -463.903          35.433  
R05  21743336.002   116230532.260        3294.712          25.224  
R10  22555572.102   120318582.797       -3966.606          29.173  
R11  20428259.510   109162455.316        -525.045          34.550  
R12  22137829.000   118256350.691        3204.400          35.827  
R20  20074209.414   107345858.590       -1538.912          29.812  
R21  20197961.942   108083433.685        2391.387          33.370  
> 2020  4 16 16 14  6.0003594  0 18
G10  24372057.775   128076071.584        4079.108          34.643  
G13  25111780.076   131963215.697        2361.210          29.233  
G15  24667551.210   129628751.813        2844.692          31.980  
G16  20877599.239   109712472.964         942.885          33.275  
G18  20851166.538   109573584.157       -1377.373          37.936  
G20  21839885.962   114769409.941        3039.533          25.407  
G21  21016248.454   110441172.100        -693.301          35.556  
G26  21063518.530   110689576.642       -1306.886          27.087  
G27  22537163.346   118433567.363        3319.607          39.346  
G29  23506208.890                       -2878.653          22.436  
R03  24433780.546                       -3248.464          14.557  
R04  21743184.007   116433863.877        -464.842          35.005  
R05  21742813.763   116227718.932        3293.377          26.037  
R10  22556404.926   120323029.409       -3966.863          29.074  
R11  20428461.271   109163461.480        -525.780          35.143  
R12  22137332.244   118253627.072        3203.879          36.025  
R20  20074594.947   107347878.168       -1538.618          29.843  
R21  20197607.587   108081523.665        2391.014          33.407  
> 2020  4 16 16 14  7.0003596  0 18
G10  24371332.278   128072307.740        4079.028          34.513  
G13  25111372.958   131961169.420        2361.136          28.644  
G15  24667057.152   129626222.098        2844.713          31.084  
G16  20877469.129   109711845.439         942.244          32.410  
G18  20851484.318   109575276.903       -1377.802          37.999  
G20  21839374.516   114766686.115        3038.157          26.919  
G21  21016447.216   110442180.567        -693.564          35.649  
G26  21063843.804   110691198.895       -1307.464          27.202  
G27  22536585.946   118430563.040        3319.231          39.293  
G29  23506814.171                       -2877.546          21.484  
R03  24434452.680                       -3248.269          12.050  
R04  21743334.803   116434650.026        -465.423          35.305  
R05  21742218.375   116224745.535        3293.723          24.640  
R10  22557214.665   120327316.168       -3966.885          28.627  
R11  20428602.173   109164308.236        -526.682          35.182  
R12  22136781.225   118250743.793        3203.255          35.789  
R20  20074926.518   107349737.734       -1538.992          29.849  
R21  20197230.149   108079453.405        2390.792          33.513  
> 2020  4 16 16 14  8.0003598  0 18
G10  24370616.973   128068544.021        4078.623          34.164  
G13  25110988.924   131959123.705        2360.212          28.839  
G15  24666581.981   129623692.864        2843.938          31.394  
G16  20877357.306   109711218.666         941.329          32.819  
G18  20851805.695   109576970.206       -1378.649          38.283  
G20  21838868.466   114763962.611        3038.565          26.348  
G21  21016631.289   110443189.484        -694.138          35.226  
G26  21064160.685   110692821.767       -1308.544          26.661  
G27  22536016.640   118427558.954        3318.898          39.676  
G29  23507447.333                       -2877.536          24.041  
R03  24435154.794                       -3248.049          13.319  
R04  21743473.007   116435437.071        -466.540          34.934  
R05  21741677.550                        3291.429          23.689  
R10  22558001.321   120331603.287       -3967.504          28.363  
R11  20428777.552   109165155.910        -527.696          36.089  
R12  22136205.024   118247861.288        3202.745          33.908  
R20  20075269.780   107351597.734       -1539.653          29.638  
R21  20196842.817   108077383.688        2389.904          33.820  
> 2020  4 16 16 14  9.0003600  0 18
G10  24369911.861   128064780.488        4078.417          35.597  
G13  25110582.705   131957078.459        2360.308          27.533  
G15  24666093.019   129621164.067        2843.592          32.263  
G16  20877235.291   109710592.611         940.846          32.745  
G18  20852127.672   109578663.988       -1378.951          38.330  
G20  21838359.418   114761239.660        3037.426          26.834  
G21  21016821.357   110444198.820        -694.388          35.394  
G26  21064464.974   110694445.220       -1308.357          27.331  
G27  22535444.337   118424555.176        3318.686          39.300  
G29  23508054.712                       -2877.334          24.880  
R03  24435862.604                       -3245.843          13.130  
R04  21743616.607   116436225.099        -467.427          35.297  
R05  21741097.751                        3290.186          21.630  
R10  22558809.561   120335890.735       -3967.679          27.901  
R11  20428927.148   109166004.543        -528.509          35.745  
R12  22135686.683   118244979.530        3201.965          33.763  
R20  20075638.525   107353458.227       -1539.932          29.519  
R21  20196450.688   108075314.448        2390.014          32.310  
> 2020  4 16 16 14 10.0003603  0 18
G10  24369227.135   128061174.625        4078.396          35.158  
G13  25110228.351   131955191.332        2359.390          28.314  
G15  24665649.027   129618793.192        2843.667          31.583  
G16  20877145.053   109710124.889         939.794          31.549  
G18  20852485.325   109580515.860       -1379.455          38.583  
G20  21837889.644   114758674.775        3037.508          27.706  
G21  21017042.005   110445366.147        -695.033          35.850  
G26  21064812.434   110696226.915       -1309.009          27.385  
G27  22534904.410   118421709.250        3318.531          39.305  
G29  23508704.662                       -2878.226          25.146  
R03  24436530.842                       -3246.922          14.266  
R04  21743805.776   116437174.721        -468.427          35.427  
R05  21740564.121                        3290.538          22.385  
R10  22559621.699   120340338.390       -3967.737          27.606  
R11  20429106.124   109167014.461        -529.689          36.075  
R12  22135168.342   118242258.635        3200.986          33.848  
R20  20076012.666   107355479.528       -1540.527          29.824  
R21  20196102.030   108073406.065        2389.564          31.418  
> 2020  4 16 16 14 11.0003605  0 17
G10  24368513.629   128057411.477        4077.751          35.497  
G13  25109839.220   131953147.316        2358.793          28.655  
G15  24665156.168   129616265.299        2843.013          31.466  
G16  20877029.333   109709500.326         939.365          32.445  
G18  20852801.906   109582210.786       -1380.029          38.629  
G20  21837335.927   114755952.986        3036.551          27.199  
G21  21017236.270   110446376.408        -695.336          35.623  
G26  21065120.321   110697851.807       -1309.727          28.011  
G27  22534329.109   118418706.158        3317.981          39.421  
G29  23509293.155                       -2880.472          23.630  
R04  21743944.580   116437964.792        -469.378          34.863  
R05  21740041.882                        3290.946          25.369  
R10  22560468.313   120344626.708       -3968.700          27.327  
R11  20429272.809   109167865.234        -530.734          35.819  
R12  22134645.204   118239378.411        3200.393          35.068  
R20  20076371.217   107357341.062       -1540.952          29.593  
R21  20195700.008   108071337.908        2388.815          31.500  
> 2020  4 16 16 14 12.0003607  0 17
G10  24367799.224   128053648.328        4078.101          35.546  
G13  25109462.081   131951103.663        2358.502          29.323  
G15  24664685.793   129613737.872        2842.011          31.293  
G16  20876898.624   109708876.567         938.174          31.735  
G18  20853121.185   109583906.105       -1380.407          38.363  
G20  21836820.883   114753231.541        3036.387          26.604  
G21  21017429.636   110447387.086        -695.870          35.633  
G26  21065422.212   110699477.276       -1310.898          28.033  
G27  22533762.201   118415703.278        3317.891          39.292  
G29  23509919.122                       -2879.029          26.239  
R04  21744097.475   116438755.786        -470.460          34.935  
R05  21739469.279                        3291.839          22.568  
R10  22561269.658   120348915.037       -3968.229          27.010  
R11  20429435.296   109168716.909        -531.701          35.857  
R12  22134111.274   118236498.862        3199.249          35.977  
R20  20076719.276   107359202.975       -1541.608          29.643  
R21  20195311.177   108069270.131        2388.132          31.630  
> 2020  4 16 16 14 13.0003609  0 18
G10  24367083.619   128049885.370        4077.633          35.396  
G13  25109066.655   131949060.514        2357.759          29.836  
G15  24664205.826   129611210.750        2842.047          30.666  
G16  20876791.598   109708253.334         938.021          32.757  
G18  20853451.556   109585601.933       -1381.087          38.957  
G20  21836282.456   114750510.607        3035.826          25.527  
G21  21017616.407   110448398.128        -696.345          35.183  
G26  21065738.493   110701103.260       -1311.614          28.815  
G27  22533189.597   118412700.670        3317.482          39.602  
G29  23510520.805                       -2876.318          24.077  
R03  24438564.634                       -3247.776          14.446  
R04  21744243.773   116439547.683        -471.517          35.074  
R05  21738927.254                        3289.528          23.872  
R10  22562044.622   120353203.876       -3969.633          26.855  
R11  20429602.281   109169569.466        -532.748          36.456  
R12  22133563.553   118233620.003        3198.643          36.050  
R20  20077038.855   107361065.344       -1542.038          29.100  
R21  20194918.449   108067202.788        2387.808          31.683  
> 2020  4 16 16 14 14.0003612  0 18
G10  24366395.595   128046280.130        4077.706          35.302  
G13  25108709.302   131947175.494        2357.464          30.409  
G15  24663744.145   129608841.734        2841.284          29.298  
G16  20876704.059   109707788.570         936.943          33.270  
G18  20853799.315   109587455.880       -1381.499          38.588  
G20  21835800.390   114747947.741        3035.121          25.700  
G21  21017839.153   110449567.227        -696.829          35.442  
G26  21066068.864   110702887.630       -1311.957          28.754  
G27  22532642.176   118409855.951        3317.190          39.307  
G29  23511136.279                       -2879.121          24.541  
R03  24439254.456                       -3248.347          14.710  
R04  21744425.148   116440501.219        -472.341          35.656  
R05  21738430.798                        3288.321          24.953  
R10  22562873.847   120357652.888       -3969.626          26.054  
R11  20429786.053   109170583.221        -533.429          35.945  
R12  22133067.696   118230902.087        3197.883          36.502  
R20  20077439.378   107363088.534       -1542.383          29.236  
R21  20194570.090   108065296.412        2387.315          31.898  
> 2020  4 16 16 14 15.0003614  0 18
G10  24365670.397   128042517.671        4077.690          36.064  
G13  25108327.966   131945133.637        2356.828          31.215  
G15  24663275.570   129606315.678        2840.954          30.150  
G16  20876575.747   109707167.075         936.237          32.124  
G18  20854129.686   109589152.952       -1382.113          38.633  
G20  21835297.338   114745227.964        3035.020          24.828  
G21  21018030.121   110450579.363        -697.052          35.178  
G26  21066377.950   110704515.186       -1312.634          28.883  
G27  22532069.873   118406854.148        3316.865          38.979  
G29  23511740.061                       -2881.589          22.852  
R03  24439930.788                       -3247.908          14.783  
R04  21744574.145   116441295.271        -473.132          35.710  
R05  21737844.403                        3289.117          23.187  
R10  22563678.790   120361942.456       -3969.280          25.724  
R11  20429933.551   109171438.014        -534.810          35.677  
R12  22132541.560   118228024.916        3197.315          37.215  
R20  20077757.758   107364952.065       -1542.893          29.331  
R21  20194172.865   108063230.243        2386.960          31.966  
> 2020  4 16 16 14 16.0003616  0 18
G10  24364965.585   128038755.325        4077.450          36.116  
G13  25107936.138   131943092.270        2356.283          32.011  
G15  24662781.811   129603789.971        2840.913          30.422  
G16  20876478.914   109706546.301         935.707          33.240  
G18  20854447.766   109590850.494       -1382.614          38.535  
G20  21834775.999   114742508.715        3034.427          26.274  
G21  21018221.088   110451591.891        -697.781          35.688  
G26  21066699.627   110706143.342       -1313.441          30.182  
G27  22531502.965   118403852.583        3316.658          39.399  
G29  23512382.816                       -2878.803          23.485  
R03  24440598.126                       -3249.709          14.044  
R04  21744724.940   116442090.196        -474.321          35.364  
R05  21737301.779                        3287.464          24.710  
R10  22564503.819   120366232.392       -3970.222          26.798  
R11  20430118.523   109172293.728        -535.659          36.087  
R12  22131983.647   118225148.429        3196.350          37.175  
R20  20078123.205   107366816.082       -1543.678          29.466  
R21  20193780.437   108061164.513        2386.633          30.683  
> 2020  4 16 16 14 17.0003618  0 18
G10  24364237.689   128034993.024        4077.620          35.085  
G13  25107549.405   131941051.363        2355.890          32.194  
G15  24662305.141   129601264.736        2840.272          30.461  
G16  20876350.603   109705926.181         935.085          33.116  
G18  20854777.238   109592548.416       -1382.967          38.785  
G20  21834243.868   114739789.853        3034.182          25.147  
G21  21018419.851   110452604.726        -697.878          35.610  
G26  21066998.820   110707772.039       -1314.181          29.443  
G27  22530930.961   118400851.248        3316.393          39.180  
G29  23512993.793                       -2877.370          19.831  
R03  24441258.269                       -3248.871          13.184  
R04  21744882.031   116442886.068        -475.150          36.041  
R05  21736709.989                        3287.340          23.095  
R10  22565290.175   120370522.580       -3970.490          26.052  
R11  20430263.023   109173150.387        -536.645          35.153  
R12  22131454.213   118222272.661        3195.769          37.133  
R20  20078483.555   107368680.480       -1544.153          29.147  
R21  20193414.390   108059099.207        2385.908          31.273  
> 2020  4 16 16 14 18.0003621  0 17
G10  24363558.659   128031388.462        4077.109          35.364  
G13  25107189.954   131939168.535        2355.091          31.870  
G15  24661849.157   129598897.404        2839.780          30.511  
G16  20876278.653   109705464.300         933.958          34.257  
G18  20855125.897   109594404.428       -1383.653          38.541  
G20  21833772.594   114737229.005        3033.397          24.684  
G21  21018636.301   110453775.575        -698.603          35.690  
G26  21067339.384   110709558.994       -1314.944          28.755  
G27  22530386.538   118398007.734        3315.993          39.485  
G29  23513621.858                       -2877.131          21.651  
R04  21745068.802   116443843.483        -476.421          36.527  
R05  21736195.245                        3285.387          24.345  
R10  22566121.199   120374972.946       -3970.782          25.919  
R11  20430462.085   109174168.070        -537.600          35.159  
R12  22130954.159   118219557.760        3194.736          37.701  
R20  20078865.491   107370705.596       -1544.611          29.573  
R21  20193062.434   108057194.850        2385.129          31.771  
> 2020  4 16 16 14 19.0003623  0 18
G10  24362847.552   128027626.375        4077.200          35.348  
G13  25106813.115   131937128.563        2354.893          32.056  
G15  24661371.588   129596372.885        2839.760          30.742  
G16  20876143.746   109704845.514         933.873          33.403  
G18  20855446.675   109596103.353       -1383.979          38.167  
G20  21833233.567   114734511.057        3032.891          25.177  
G21  21018836.562   110454789.171        -698.667          35.671  
G26  21067637.378   110711188.905       -1315.193          28.841  
G27  22529815.134   118395006.892        3315.812          39.354  
G29  23514225.341                       -2878.906          22.012  
R03  24442649.306                       -3248.123          13.518  
R04  21745216.300   116444641.228        -476.995          36.443  
R05  21735644.227                        3281.547          25.067  
R10  22566916.849   120379263.704       -3971.001          25.780  
R11  20430601.489   109175026.495        -538.205          35.225  
R12  22130405.839   118216683.327        3194.417          37.385  
R20  20079213.850   107372570.801       -1544.695          29.563  
R21  20192679.899   108055130.402        2385.048          31.574  
> 2020  4 16 16 14 20.0003625  0 18
G10  24362123.553   128023864.403        4076.971          34.969  
G13  25106416.190   131935089.036        2354.340          32.137  
G15  24660885.624   129593848.768        2838.934          30.427  
G16  20876033.123   109704227.473         932.503          33.102  
G18  20855778.245   109597802.680       -1384.350          38.108  
G20  21832721.222                        3031.751          23.968  
G21  21019033.526   110455803.149        -698.842          35.955  
G26  21067938.370   110712819.420       -1316.025          28.909  
G27  22529250.624   118392006.291        3315.584          39.603  
G29  23514836.617                       -2881.868          22.465  
R03  24443260.883                       -3248.656          13.984  
R04  21745361.999   116445439.886        -478.062          36.128  
R05  21735121.389                        3284.397          26.957  
R10  22567734.383   120383554.702       -3971.070          26.624  
R11  20430774.469   109175885.874        -539.474          35.230  
R12  22129876.705   118213809.551        3193.880          37.859  
R20  20079554.414   107374436.406       -1545.053          29.666  
R21  20192304.858   108053066.406        2384.416          31.981  
> 2020  4 16 16 14 21.0003627  0 18
G10  24361403.152   128020102.580        4076.888          34.888  
G13  25106039.051   131933050.052        2353.878          32.179  
G15  24660412.851   129591325.041        2838.490          30.187  
G16  20875921.300   109703610.040         932.167          33.477  
G18  20856097.824   109599502.550       -1385.016          38.018  
G20  21832234.658                        3031.764          25.655  
G21  21019222.395   110456817.619        -699.548          35.982  
G26  21068260.647   110714450.509       -1316.390          28.370  
G27  22528677.421   118389005.942        3315.450          39.591  
G29  23515466.182                       -2882.644          23.686  
R03  24443910.833                       -3251.463          13.641  
R04  21745517.292   116446239.464        -478.946          35.637  
R05  21734556.580                        3283.601          27.320  
R10  22568514.742   120387573.005       -3971.635          26.847  
R11  20430943.552   109176746.260        -540.436          35.782  
R12  22129343.674   118210936.510        3193.199          38.025  
R20  20079912.366   107376302.472       -1545.504          29.524  
R21  20191913.329   108051002.864        2384.072          32.408  
> 2020  4 16 16 14 22.0003629  0 18
G10  24360687.247   128016340.867        4076.770          34.991  
G13  25105636.729   131931011.553        2353.378          32.076  
G15  24659918.793   129588801.687        2838.094          29.949  
G16  20875789.092   109702993.375         931.216          32.508  
G18  20856418.302   109601202.868       -1385.428          37.814  
G20  21831689.336                        3030.897          24.784  
G21  21019416.061   110457832.438        -700.074          35.933  
G26  21068567.334   110716082.243       -1317.073          28.388  
G27  22528112.612   118386005.876        3315.033          39.813  
G29  23516049.578                       -2876.253          22.450  
R03  24444603.053                       -3251.520          15.205  
R04  21745656.096   116447039.949        -480.160          35.586  
R05  21734003.163                        3282.470          26.014  
R10  22569320.584   120391864.693       -3972.204          26.485  
R11  20431098.545   109177607.599        -541.426          35.509  
R12  22128804.947   118208064.199        3192.242          37.939  
R20  20080265.821   107378169.035       -1546.292          29.393  
R21  20191537.090   108048939.709        2383.774          33.328  
> 2020  4 16 16 14 23.0003632  0 18
G10  24360008.217   128012736.766        4076.648          34.816  
G13  25105282.075   131929130.999        2352.857          31.592  
G15  24659485.893   129586436.239        2837.884          30.159  
G16  20875699.754   109702534.852         930.507          32.808  
G18  20856773.856   109603061.141       -1386.090          37.759  
G20  21831209.968                        3031.399          24.311  
G21  21019650.199   110459005.127        -700.558          36.506  
G26  21068918.391   110717872.110       -1317.693          28.519  
G27  22527567.889   118383163.542        3314.755          39.640  
G29  23516687.236                       -2876.122          19.206  
R03  24445274.289                       -3253.598          15.930  
R04  21745840.168   116448001.849        -480.931          34.877  
R05  21733474.629                        3282.234          26.852  
R10  22570182.788   120396316.390       -3971.982          27.129  
R11  20431284.716   109178629.936        -542.217          34.801  
R12  22128286.906   118205352.652        3191.383          37.404  
R20  20080630.669   107380196.219       -1546.509          29.508  
R21  20191176.739   108047037.462        2383.216          33.879  
> 2020  4 16 16 14 24.0003634  0 18
G10  24359292.912   128008975.316        4076.454          35.652  
G13  25104894.143   131927093.608        2352.162          31.582  
G15  24658972.349   129583913.716        2837.409          29.009  
G16  20875590.929   109701919.585         930.111          32.470  
G18  20857091.936   109604762.467       -1386.643          37.108  
G20  21830711.713                        3030.016          24.378  
G21  21019836.970   110460020.739        -700.629          36.884  
G26  21069231.375   110719505.134       -1318.433          28.897  
G27  22526993.787   118380164.059        3314.345          39.601  
G29  23517307.507                       -2876.471          20.239  
R03  24445964.111                       -3253.270          13.186  
R04  21746004.454   116448804.263        -481.808          35.395  
R05  21732900.826   116174952.9401       3282.110          25.172  
R10  22571007.816   120400608.653       -3972.519          27.534  
R11  20431459.195   109179493.188        -543.239          35.046  
R12  22127738.585   118202481.755        3190.715          36.806  
R20  20080971.233   107382063.675       -1547.262          29.577  
R21  20190774.718   108044975.302        2382.906          34.038  
> 2020  4 16 16 14 25.0003636  0 18
G10  24358587.501   128005214.013        4076.736          35.147  
G13  25104509.510   131925056.680        2351.964          32.529  
G15  24658489.083   129581391.709        2837.198          27.545  
G16  20875471.012   109701305.093         929.276          32.622  
G18  20857420.808   109606464.334       -1386.999          37.634  
G20  21830179.581                        3032.380          24.535  
G21  21020038.430   110461036.855        -701.007          36.581  
G26  21069536.863   110721138.725       -1318.623          29.068  
G27  22526429.577   118377164.876        3314.067          39.544  
G29  23517888.205                       -2879.401          21.607  
R03  24446644.340                       -3253.983          16.149  
R04  21746161.546   116449607.711        -482.759          35.083  
R05  21732327.023   116171992.311        3281.175          24.678  
R10  22571786.078   120404901.233       -3972.872          27.267  
R11  20431602.496   109180357.414        -544.362          34.580  
R12  22127222.942   118199611.607        3190.177          37.039  
R20  20081331.883   107383931.572       -1547.430          29.491  
R21  20190405.673   108042913.659        2382.287          33.852  
> 2020  4 16 16 14 26.0003638  0 18
G10  24357853.609   128001452.922        4076.177          34.355  
G13  25104117.681   131923020.194        2351.545          32.335  
G15  24658034.898   129578870.146        2836.228          27.855  
G16  20875351.095   109700691.283         928.612          32.400  
G18  20857737.988   109608166.659       -1387.585          37.030  
G20  21829680.427                        3029.253          24.466  
G21  21020219.505   110462053.371        -701.530          36.444  
G26  21069860.639   110722773.040       -1319.499          28.997  
G27  22525857.873   118374165.946        3313.873          39.846  
G29  23518460.509                       -2882.948          20.375  
R03  24447370.438                       -3253.746          16.176  
R04  21746295.253   116450412.063        -483.799          33.947  
R05  21731836.563   116169032.271        3280.322          24.975  
R10  22572615.903   120409194.075       -3973.062          26.535  
R11  20431772.178   109181222.575        -545.262          34.319  
R12  22126668.026   118196742.173        3189.540          37.223  
R20  20081674.546   107385799.933       -1547.953          29.175  
R21  20190006.649   108040852.455        2382.002          33.856  
> 2020  4 16 16 14 27.0003641  0 18
G10  24357175.179   127997849.471        4076.129          34.969  
G13  25103763.026   131921141.917        2350.828          31.874  
G15  24657590.605   129576506.412        2836.117          28.584  
G16  20875250.964   109700235.691         928.006          31.434  
G18  20858091.744   109610026.969       -1387.734          37.347  
G20  21829202.258                        3028.604          25.318  
G21  21020451.544   110463227.824        -702.100          36.500  
G26  21070173.622   110724565.474       -1320.101          28.193  
G27  22525317.947   118371324.818        3313.722          39.979  
G29  23519167.419                       -2883.529          21.165  
R03  24448046.769                       -3255.095          18.125  
R04  21746465.235   116451377.832        -484.252          33.543  
R05  21731275.051   116166233.248        3280.266          24.093  
R10  22573448.127   120413647.164       -3973.403          27.104  
R11  20431970.041   109182248.895        -545.890          34.217  
R12  22126164.075   118194033.628        3188.733          36.250  
R20  20082057.081   107387828.993       -1547.788          28.735  
R21  20189649.297   108038952.144        2381.695          33.859  
> 2020  4 16 16 14 28.0003643  0 18
G10  24356462.872   127994088.550        4075.898          35.239  
G13  25103360.405   131919106.423        2350.015          30.933  
G15  24657116.933   129573985.550        2835.627          29.939  
G16  20875131.947   109699623.287         927.263          31.595  
G18  20858419.417   109611730.235       -1388.420          37.557  
G20  21828683.917                        3028.744          25.079  
G21  21020646.110   110464245.056        -702.225          36.759  
G26  21070492.901   110726200.903       -1320.645          27.914  
G27  22524752.538   118368326.372        3313.450          40.234  
G29  23519773.300                       -2879.638          19.287  
R03  24448728.198                       -3255.538          13.652  
R04  21746600.442   116452184.055        -485.333          32.641  
R05  21730705.146                        3279.583          24.860  
R10  22574260.864   120418224.573       -3973.557          26.996  
R11  20432126.833   109183115.900        -546.923          33.551  
R12  22125627.747   118191165.564        3188.055          36.396  
R20  20082405.740   107389698.203       -1548.649          29.176  
R21  20189279.053   108036891.808        2380.965          33.537  
> 2020  4 16 16 14 29.0003645  0 18
G10  24355745.468   127990327.865        4075.833          35.069  
G13  25102987.763   131917071.539        2349.840          32.471  
G15  24656641.462   129571465.232        2835.425          30.319  
G16  20875013.529   109699011.643         926.655          30.814  
G18  20858746.190   109613434.094       -1388.851          37.388  
G20  21828173.370                        3027.739          24.896  
G21  21020839.176   110465262.906        -702.920          36.452  
G26  21070804.386   110727837.216       -1321.507          27.622  
G27  22524174.838   118365328.382        3312.967          39.633  
G29  23520374.084                       -2879.544          17.945  
R03  24449390.739                       -3257.815          15.193  
R04  21746768.026   116452991.335        -486.718          33.302  
R05  21730148.731                        3277.633          24.486  
R10  22575058.013   120422518.519       -3973.963          25.522  
R11  20432275.830   109183984.111        -548.442          33.293  
R12  22125084.823   118188298.326        3187.276          35.990  
R20  20082755.298   107391568.005       -1549.242          29.991  
R21  20188886.325   108034832.121        2380.316          33.596  
> 2020  4 16 16 14 30.0003647  0 17
G10  24355032.262   127986567.324        4075.581          34.825  
G13  25102595.934   131915037.236        2349.417          32.564  
G15  24656158.796   129568945.289        2834.885          29.954  
G16  20874894.511   109698400.747         925.762          30.235  
G18  20859064.870   109615138.464       -1389.498          36.935  
G20  21827653.230   114704960.4251       3027.448          24.513  
G21  21021033.741   110466281.142        -703.481          36.777  
G26  21071111.973   110729473.987       -1321.956          28.474  
G27  22523604.033   118362330.606        3312.768          39.877  
R03  24450010.410                       -3257.731          14.401  
R04  21746925.117   116453799.596        -487.848          32.766  
R05  21729655.872                        3277.203          28.092  
R10  22575870.150   120426812.649       -3974.267          26.883  
R11  20432426.625   109184853.113        -549.106          33.237  
R12  22124540.399   118185431.837        3186.485          36.345  
R20  20083098.560   107393438.272       -1549.793          30.160  
R21  20188490.299   108032772.811        2379.953          32.415  
> 2020  4 16 16 14 31.0003650  0 18
G10  24354344.538   127982964.445        4075.311          34.111  
G13  25102240.980   131913160.968        2348.354          32.504  
G15  24655702.512   129566583.309        2834.501          29.793  
G16  20874815.366   109697948.167         924.645          29.955  
G18  20859414.128   109617000.792       -1389.730          36.462  
G20  21827144.482   114702405.824        3027.166          25.603  
G21  21021254.089   110467457.259        -703.700          37.063  
G26  21071458.533   110731269.005       -1323.027          28.171  
G27  22523069.204   118359490.649        3312.493          39.794  
G29  23521635.611                       -2881.493          15.605  
R03  24450702.331                       -3258.885          14.412  
R04  21747100.196   116454769.255        -488.320          32.416  
R05  21729129.137                        3276.773          28.941  
R10  22576720.362   120431267.115       -3974.852          26.686  
R11  20432627.786   109185883.347        -550.053          32.829  
R12  22124036.448   118182726.208        3185.709          35.545  
R20  20083495.785   107395469.283       -1550.196          29.884  
R21  20188153.932   108030874.457        2379.174          31.626  
> 2020  4 16 16 14 32.0003652  0 17
G10  24353618.741   127979204.005        4075.810          33.905  
G13  25101856.047   131911127.470        2348.594          32.095  
G15  24655227.041   129564064.068        2834.210          32.254  
G16  20874690.353   109697338.502         924.167          29.389  
G18  20859744.499   109618706.013       -1390.360          36.938  
G20  21826621.045   114699694.124        3026.812          25.977  
G21  21021445.956   110468476.136        -703.995          37.129  
G26  21071778.411   110732906.951       -1323.271          28.333  
G27  22522496.900   118356493.320        3312.130          39.644  
R03  24451359.176                       -3257.315          14.767  
R04  21747252.490   116455579.205        -489.395          31.098  
R05  21728526.854                        3276.786          27.759  
R10  22577472.541   120435561.671       -3974.482          26.384  
R11  20432804.364   109186754.155        -550.959          33.973  
R12  22123503.417   118179861.037        3184.821          35.461  
R20  20083831.853   107397340.261       -1550.501          29.878  
R21  20187746.514   108028815.980        2379.273          30.732  
> 2020  4 16 16 14 33.0003654  0 18
G10  24352913.029   127975443.613        4075.426          34.242  
G13  25101472.312   131909094.410        2348.377          32.628  
G15  24654766.560   129561545.029        2834.442          33.507  
G16  20874575.832   109696729.414         924.179          29.612  
G18  20860067.676   109620411.521       -1390.298          37.222  
G20  21826102.104   114696982.628        3026.857          26.545  
G21  21021637.223   110469495.257        -703.930          36.470  
G26  21072075.506   110734545.267       -1323.190          27.539  
G27  22521929.992   118353496.061        3312.577          39.681  
G29  23522874.053                       -2882.908          14.265  
R03  24452081.976                       -3258.231          15.274  
R04  21747377.204   116456389.945        -489.801          30.995  
R05  21728003.116   116148652.1241       3276.186          27.313  
R10  22578306.863   120439856.479       -3974.427          26.078  
R11  20432972.248   109187625.775        -551.346          33.861  
R12  22122961.692   118176996.323        3184.825          34.941  
R20  20084194.002   107399211.540       -1550.445          30.480  
R21  20187354.985   108026757.738        2379.259          29.593  
> 2020  4 16 16 14 34.0003656  0 18
G10  24352202.821   127971683.085        4075.718          34.592  
G13  25101090.377   131907061.616        2347.829          33.104  
G15  24654268.605   129559026.296        2833.950          32.988  
G16  20874480.198   109696120.840         923.664          30.430  
G18  20860389.953   109622117.364       -1390.855          36.928  
G20  21825575.369   114694271.439        3026.647          25.842  
G21  21021832.988   110470514.633        -704.485          36.312  
G26  21072388.789   110736184.182       -1324.384          27.889  
G27  22521354.091   118350498.917        3312.229          39.784  
G29  23523487.129                       -2881.965          13.955  
R03  24452757.708                       -3258.590          15.024  
R04  21747542.090   116457201.419        -491.027          29.923  
R05  21727484.176   116145697.277        3274.908          26.284  
R10  22579134.291   120444151.429       -3975.395          26.012  
R11  20433142.530   109188498.207        -552.554          34.102  
R12  22122433.758   118174132.230        3184.211          35.282  
R20  20084546.258   107401083.116       -1550.896          30.435  
R21  20186954.462   108024699.803        2379.062          28.499  
> 2020  4 16 16 14 35.0003658  0 18
G10  24351480.321   127967922.696        4075.599          34.552  
G13  25100691.353   131905029.305        2347.309          32.183  
G15  24653793.434   129556507.955        2833.280          32.851  
G16  20874356.084   109695513.005         922.516          30.365  
G18  20860716.127   109623823.609       -1391.103          37.055  
G20  21825056.428   114691560.804        3025.240          25.402  
G21  21022022.157   110471534.344        -704.642          35.923  
G26  21072711.965   110737823.556       -1324.160          28.541  
G27  22520789.582   118347501.985        3312.224          39.960  
G29  23524055.835                       -2882.865          13.566  
R03  24453424.447                       -3258.848          15.733  
R04  21747717.169   116458013.736        -491.667          30.275  
R05  21726889.687   116142743.009        3274.715          26.658  
R10  22579932.338   120448446.590       -3975.362          25.251  
R11  20433287.330   109189371.531        -553.282          33.418  
R12  22121883.938   118171268.769        3183.613          34.733  
R20  20084884.124   107402955.091       -1551.377          30.113  
R21  20186582.120   108022642.285        2378.135          28.317  
> 2020  4 16 16 14 36.0003661  0 18
G10  24350797.094   127964319.763        4075.502          34.797  
G13  25100335.499   131903154.830        2346.690          32.018  
G15  24653342.846   129554147.258        2833.147          33.757  
G16  20874268.545   109695063.145         922.376          29.987  
G18  20861075.278   109625687.745       -1391.818          37.405  
G20  21824580.357   114689007.908        3025.367          25.317  
G21  21022241.005   110472711.806        -704.947          35.766  
G26  21073062.722   110739620.935       -1325.208          28.757  
G27  22520240.662   118344662.686        3311.855          39.652  
G29  23524645.527                       -2881.844          13.255  
R03  24454119.965                       -3258.456          15.907  
R04  21747898.243   116458987.459        -492.718          29.828  
R05  21726357.556   116139949.532        3274.175          26.655  
R10  22580733.384                       -3973.537          23.549  
R11  20433499.583   109190405.796        -554.260          33.183  
R12  22121369.495   118168565.939        3182.855          33.891  
R20  20085276.852   107404987.585       -1551.724          30.004  
R21  20186257.145   108020745.393        2378.033          28.267  
> 2020  4 16 16 14 37.0003663  0 17
G10  24350072.196   127960559.301        4075.634          34.092  
G13  25099946.069   131901123.151        2346.782          31.830  
G15  24652867.375   129551629.353        2833.191          33.946  
G16  20874138.734   109694456.359         921.918          29.753  
G18  20861399.354   109627394.670       -1391.938          37.429  
G20  21824049.425   114686297.783        3025.406          25.102  
G21  21022435.271   110473732.050        -705.006          35.878  
G26  21073366.112   110741261.330       -1325.474          28.568  
G27  22519673.754   118341666.041        3311.750          39.569  
R03  24454776.810                       -3259.795          15.182  
R04  21748014.863   116459801.302        -493.070          30.411  
R05  21725773.260   116136708.564        3272.550          25.658  
R10  22581523.037                       -3975.152          23.705  
R11  20433643.183   109191280.629        -554.493          33.419  
R12  22120840.661   118165703.666        3182.319          34.606  
R20  20085611.121   107406860.088       -1551.700          30.127  
R21  20185859.021   108018688.584        2377.614          27.779  
> 2020  4 16 16 14 38.0003665  0 18
G05  25377420.477                       -3113.712          21.230  
G10  24349358.390   127956798.914        4075.420          34.242  
G13  25099570.129   131899091.999        2346.034          32.892  
G15  24652396.701   129549111.846        2832.382          34.512  
G16  20874036.205   109693850.226         920.850          30.661  
G18  20861720.731   109629102.026       -1392.674          37.746  
G20  21823545.774   114683588.239        3024.007          25.006  
G21  21022628.637   110474752.626        -705.534          35.787  
G26  21073672.200   110742902.196       -1326.206          28.342  
G27  22519099.052   118338669.533        3311.547          39.251  
R03  24455452.243                       -3258.301          14.370  
R04  21748187.243   116460616.216        -494.416          32.290  
R05  21725258.816   116133755.886        3273.055          27.465  
R10  22582361.556                       -3976.307          24.715  
R11  20433820.660   109192156.441        -555.713          33.825  
R12  22120296.837   118162841.972        3181.636          33.921  
R20  20085968.473   107408733.001       -1552.541          30.183  
R21  20185482.781   108016631.991        2377.177          28.175  
> 2020  4 16 16 14 39.0003667  0 20
G05  25378075.224                       -3117.522          19.684  
G07  25589652.252                        2391.028          13.881  
G10  24348650.280   127953038.598        4075.327          35.065  
G13  25099175.902   131897061.233        2345.646          33.088  
G15  24651913.136   129546594.655        2832.044          34.632  
G16  20873916.588   109693244.776         920.162          30.488  
G18  20862046.006   109630809.814       -1393.037          37.362  
G20  21823015.441                        3023.537          25.399  
G21  21022830.997   110475773.563        -706.007          35.959  
G26  21073992.678   110744543.676       -1326.857          28.136  
G27  22518529.147   118335673.297        3311.245          39.201  
G29  23526463.168                       -2882.340          18.334  
R03  24456111.786                       -3257.528          13.941  
R04  21748337.439   116461431.963        -495.210          33.086  
R05  21724714.393   116130804.003        3272.263          27.139  
R10  22583134.122                       -3974.664          24.501  
R11  20433944.175   109193033.131        -556.255          33.466  
R12  22119765.305   118159980.961        3180.894          33.570  
R20  20086313.534   107410606.319       -1552.974          30.053  
R21  20185113.437   108014575.824        2376.960          28.498  
> 2020  4 16 16 14 40.0003670  0 18
G05  25378772.541                       -3119.286          19.566  
G07  25589266.419                        2388.847          15.415  
G10  24347967.353   127949436.068        4075.062          34.979  
G13  25098834.438   131895188.710        2345.013          33.097  
G15  24651456.252   129544235.500        2831.652          34.867  
G16  20873850.934   109692797.609         919.545          30.492  
G18  20862403.059   109632675.686       -1393.369          37.759  
G20  21822527.379                        3023.549          25.811  
G21  21023057.940   110476952.526        -706.274          36.094  
G26  21074333.842   110746343.403       -1327.351          28.066  
G27  22517988.621   118332834.950        3311.048          39.097  
R04  21748509.520   116462409.258        -495.954          32.793  
R05  21724217.037   116128390.162        3271.224          27.337  
R10  22584005.019                       -3977.043          24.854  
R11  20434178.613   109194071.178        -557.775          33.915  
R12  22119267.350   118157280.879        3180.458          34.302  
R20  20086699.967   107412640.498       -1553.506          30.122  
R21  20184753.386   108012680.754        2376.217          27.955  
> 2020  4 16 16 14 41.0003672  0 18
G05  25379430.286                       -3120.105          18.055  
G07  25588859.601                        2389.253          14.357  
G10  24347242.455   127945675.971        4075.289          34.402  
G13  25098439.912   131893158.913        2344.749          32.770  
G15  24650978.383   129541719.050        2831.347          33.750  
G16  20873725.321   109692193.538         919.127          30.675  
G18  20862722.038   109634384.464       -1393.802          37.465  
G20  21822029.423                        3023.759          26.545  
G21  21023243.811   110477974.251        -706.733          35.956  
G26  21074661.216   110747986.103       -1327.922          29.372  
G27  22517426.210   118329839.222        3310.905          39.284  
R04  21748675.006   116463226.823        -496.800          34.058  
R05  21723658.224   116125439.546        3270.693          28.400  
R10  22584793.773                       -3976.308          24.830  
R11  20434332.106   109194949.733        -558.271          34.551  
R12  22118731.921   118154421.295        3179.283          34.758  
R20  20087067.513   107414514.641       -1553.564          29.783  
R21  20184371.450   108010625.493        2376.228          27.828  
> 2020  4 16 16 14 42.0003674  0 19
G05  25380075.439                       -3121.019          16.209  
G07  25588476.766                        2389.341          14.480  
G10  24346519.355   127941915.729        4075.654          34.612  
G13  25098048.982   131891129.390        2344.378          32.027  
G15  24650506.210   129539202.838        2831.654          33.533  
G16  20873614.098   109691589.785         919.076          30.954  
G18  20863046.414   109636093.322       -1393.781          37.548  
G20  21821515.879                        3023.829          27.166  
G21  21023442.574   110478996.050        -706.675          35.759  
G26  21074970.901   110749629.028       -1327.626          29.980  
G27  22516849.410   118326843.442        3310.961          39.259  
G29  23528295.800                       -2883.011          18.697  
R04  21748824.302   116464044.968        -497.344          34.948  
R05  21723092.516   116122489.372        3270.381          27.281  
R10  22585592.120                       -3974.064          22.902  
R11  20434516.778   109195828.910        -558.885          35.092  
R12  22118190.795   118151562.016        3179.387          34.295  
R20  20087399.982   107416388.904       -1553.341          30.006  
R21  20183954.739   108008570.501        2376.144          27.159  
> 2020  4 16 16 14 43.0003676  0 18
G05  25380698.408                       -3120.874          17.354  
G10  24345810.046   127938155.459        4075.366          34.509  
G13  25097665.847   131889100.164        2344.533          31.806  
G15  24650014.250   129536686.755        2831.095          34.818  
G16  20873497.478   109690986.682         917.980          31.509  
G18  20863373.187   109637802.597       -1394.350          37.617  
G20  21821003.534                        3022.453          27.809  
G21  21023635.040   110480018.138        -707.149          35.726  
G26  21075287.482   110751272.543       -1328.584          29.549  
G27  22516280.403   118323847.832        3310.503          39.051  
G29  23528946.649                       -2883.488          21.763  
R04  21748987.989   116464863.963        -498.380          33.993  
R05  21722556.187   116119539.703        3269.818          29.567  
R10  22586417.748                       -3976.835          23.011  
R11  20434690.658   109196708.957        -560.188          35.764  
R12  22117666.158   118148703.442        3178.382          34.675  
R20  20087752.538   107418263.557       -1554.245          29.525  
R21  20183553.617   108006515.852        2375.154          27.633  
> 2020  4 16 16 14 44.0003679  0 18
G05  25381406.518                       -3119.175          18.780  
G10  24345116.027   127934552.925        4075.174          33.809  
G13  25097306.097   131887229.131        2343.549          30.769  
G15  24649560.664   129534328.736        2830.473          33.482  
G16  20873418.933   109690541.875         916.999          32.244  
G18  20863735.936   109639669.920       -1394.808          36.846  
G20  21820507.377   114667653.9161       3021.800          28.055  
G21  21023860.784   110481198.207        -707.517          35.741  
G26  21075631.344   110753074.201       -1329.124          29.923  
G27  22515741.676   118321010.066        3309.974          39.194  
G29  23529583.408                       -2884.788          23.104  
R04  21749178.657   116465844.492        -499.411          34.325  
R05  21722026.454   116116750.978        3269.779          30.535  
R10  22587270.658                       -3977.194          23.316  
R11  20434875.030   109197750.230        -561.123          36.434  
R12  22117160.109   118146005.696        3177.845          34.952  
R20  20088127.279   107420298.922       -1554.426          29.531  
R21  20183230.740   108004621.916        2375.263          28.555  
> 2020  4 16 16 14 45.0003681  0 18
G05  25382063.963                       -3119.396          18.193  
G10  24344408.217   127930793.082        4074.687          34.599  
G13  25096915.767   131885201.088        2342.742          29.146  
G15  24649085.793   129531813.622        2830.063          33.508  
G16  20873303.812   109689940.292         916.124          31.993  
G18  20864054.016   109641380.262       -1395.436          36.848  
G20  21819989.935   114664947.270        3020.975          28.197  
G21  21024050.253   110482221.254        -708.213          35.052  
G26  21075934.434   110754719.052       -1330.518          30.076  
G27  22515168.473   118318015.059        3309.777          39.304  
G29  23530161.408                       -2886.544          20.622  
R04  21749333.650   116466665.585        -500.389          34.970  
R05  21721503.916   116113802.904        3268.472          30.167  
R10  22588034.829                       -3977.437          23.063  
R11  20435044.413   109198632.243        -562.116          35.783  
R12  22116625.879   118143148.651        3176.553          35.935  
R20  20088459.749   107422174.535       -1555.055          29.000  
R21  20182829.618   108002568.291        2373.762          27.751  
> 2020  4 16 16 14 46.0003683  0 18
G05  25382702.221                       -3119.050          16.619  
G10  24343691.713   127927033.357        4074.262          34.136  
G13  25096534.131   131883173.569        2342.344          28.524  
G15  24648618.417   129529298.966        2829.671          32.528  
G16  20873179.698   109689339.389         915.995          31.615  
G18  20864380.790   109643091.172       -1396.194          37.389  
G20  21819478.489   114662241.005        3021.450          27.953  
G21  21024241.820   110483244.724        -708.731          34.561  
G26  21076245.319   110756364.496       -1329.899          29.620  
G27  22514603.065   118315020.392        3309.440          39.156  
G29  23530786.176                       -2882.041          20.074  
R04  21749479.948   116467487.617        -501.976          34.250  
R05  21720913.025   116110855.625        3267.314          28.944  
R10  22588863.455                       -3974.247          24.362  
R11  20435198.506   109199515.413        -563.459          36.402  
R12  22116094.346   118140292.271        3176.430          36.140  
R20  20088833.890   107424050.680       -1555.673          28.734  
R21  20182488.454                        2373.284          27.981  
> 2020  4 16 16 14 47.0003685  0 17
G05  25383367.460                       -3120.506          16.521  
G13  25096167.185   131881146.270        2342.297          28.344  
G15  24648130.954   129526784.488        2829.533          34.805  
G16  20873053.786   109688739.018         915.253          31.735  
G18  20864702.167   109644802.234       -1396.078          36.759  
G20  21818981.134   114659535.043        3020.965          31.351  
G21  21024438.784   110484268.347        -708.813          32.620  
G26  21076587.082                       -1329.160          26.074  
G27  22514027.763   118312025.751        3309.606          39.389  
G29  23531390.857                       -2887.443          17.605  
R04  21749636.740   116468310.161        -502.052          33.343  
R05  21720382.692   116107908.629        3267.036          27.969  
R10  22589659.104                       -3977.995          25.904  
R11  20435357.696   109200399.144        -563.703          37.080  
R12  22115568.211   118137436.420        3175.662          35.725  
R20  20089174.154   107425926.972       -1555.539          27.869  
R21  20182063.048                        2373.701          28.185  
> 2020  4 16 16 14 48.0003688  0 17
G05  25384029.702                       -3120.479          16.069  
G13  25095784.950   131879277.061        2341.657          25.820  
G15  24647684.263   129524427.857        2829.150          34.918  
G16  20872980.037   109688296.780         914.560          31.820  
G18  20865056.222   109646671.298       -1396.638          36.249  
G20  21818489.474   114656987.021        3020.483          33.843  
G21  21024651.037   110485449.824        -709.265          31.827  
G26  21076940.538                       -1329.586          23.788  
G27  22513485.139   118309188.820        3309.453          39.290  
G29  23532013.526                       -2887.089          19.253  
R04  21749805.523   116469294.235        -502.945          31.827  
R05  21719873.045   116105122.495        3266.114          28.342  
R10  22590507.517                       -3978.244          26.854  
R11  20435556.758   109201443.887        -564.579          36.351  
R12  22115043.274   118134741.308        3175.269          34.977  
R20  20089565.083   107427963.937       -1556.190          27.296  
R21  20181721.885                        2373.051          27.836  
> 2020  4 16 16 14 49.0003690  0 18
G05  25384684.449                       -3122.094          14.618  
G10  24341589.568   127915911.5841       4073.859          29.445  
G13  25095402.414                        2342.613          25.215  
G15  24647204.296   129521914.088        2828.609          33.728  
G16  20872863.417   109687697.667         913.593          31.773  
G18  20865386.893   109648383.269       -1397.574          36.152  
G20  21817976.829   114654281.792        3020.168          33.016  
G21  21024838.707   110486474.081        -709.697          31.928  
G26  21077220.844                       -1332.855          23.884  
G27  22512923.327   118306194.652        3308.881          39.397  
G29  23532625.702                       -2885.424          19.570  
R04  21749975.805   116470118.705        -504.449          32.745  
R05  21719292.647   116102176.824        3265.211          27.264  
R10  22591320.254                       -3977.963          26.154  
R11  20435720.745   109202329.461        -565.681          36.819  
R12  22114523.734   118131886.747        3174.197          35.234  
R20  20089922.436   107429841.076       -1557.127          27.336  
R21  20181334.853                        2371.949          28.149  
> 2020  4 16 16 14 50.0003692  0 17
G05  25385349.688                       -3123.523          14.683  
G10  24340854.177   127912152.137        4074.512          34.785  
G13  25095009.387                        2340.675          26.846  
G15  24646717.433   129519400.868        2828.222          31.559  
G16  20872755.492   109687099.309         913.411          31.472  
G18  20865707.072   109650095.770       -1397.596          36.818  
G20  21817452.492   114651577.340        3019.225          31.313  
G21  21025048.262   110487498.862        -709.616          33.672  
G26  21077532.328                       -1333.274          26.499  
G27  22512354.022   118303200.752        3309.267          38.915  
R04  21750121.804   116470944.065        -504.863          33.063  
R05  21718756.018                        3266.785          25.152  
R10  22592109.608                       -3978.747          25.268  
R11  20435891.027   109203216.099        -566.898          35.734  
R12  22113987.705   118129032.878        3174.092          35.183  
R20  20090259.103   107431718.609       -1556.970          27.545  
R21  20180938.527                        2372.703          27.986  
> 2020  4 16 16 14 51.0003694  0 18
G05  25386029.318                       -3120.619          17.129  
G10  24340132.877   127908392.762        4074.431          34.002  
G13  25094626.851                        2340.038          30.879  
G15  24646240.763   129516887.989        2828.026          34.954  
G16  20872644.569   109686501.691         912.852          31.821  
G18  20866041.040   109651808.765       -1398.235          36.778  
G20  21816929.354   114648873.181        3018.928          29.327  
G21  21025246.725   110488524.061        -710.522          34.486  
G26  21077836.917                       -1333.276          27.436  
G27  22511780.519   118300207.156        3308.669          38.992  
G29  23533813.180                       -2886.486          20.797  
R04  21750271.400   116471770.537        -505.998          34.584  
R05  21718186.412                        3264.878          26.590  
R10  22592919.947                       -3979.066          26.226  
R11  20436065.806   109204103.601        -567.711          35.621  
R12  22113464.567   118126179.868        3172.883          35.648  
R20  20090612.858   107433596.672       -1557.679          28.290  
R21  20180568.583   107990414.3691       2371.986          29.074  
> 2020  4 16 16 14 52.0003696  0 19
G05  25386678.968                       -3122.263          18.174  
G10  24339423.568   127904633.569        4074.516          34.078  
G13  25094242.517                        2339.710          31.991  
G15  24645768.589   129514375.568        2827.397          37.355  
G16  20872523.752   109685904.891         911.505          31.781  
G18  20866365.116   109653522.279       -1398.605          37.068  
G20  21816414.610   114646169.648        3018.337          29.637  
G21  21025448.785   110489549.705        -710.628          35.220  
G26  21078140.007                       -1334.099          27.669  
G27  22511210.613   118297213.909        3308.257          39.068  
G29  23534466.128                       -2892.149          22.054  
R03  24464848.338                       -3264.222          15.281  
R04  21750414.701   116472597.982        -506.345          33.726  
R05  21717670.170                        3263.738          27.710  
R10  22593732.085                       -3979.473          26.758  
R11  20436215.103   109204992.125        -568.219          35.977  
R12  22112922.542   118123327.536        3172.198          35.689  
R20  20090933.936   107435475.218       -1558.043          28.571  
R21  20180191.744   107988363.696        2371.486          30.119  
> 2020  4 16 16 14 53.0003699  0 19
G05  25387365.493                       -3121.257          16.750  
G10  24338735.244   127901032.086        4074.029          34.311  
G13  25093882.467                        2339.415          33.393  
G15  24645317.102   129512021.029        2826.883          36.990  
G16  20872437.112   109685466.198         911.216          31.659  
G18  20866719.770   109655393.778       -1399.111          37.211  
G20  21815916.056   114643624.070        3017.828          29.056  
G21  21025669.732   110490733.259        -711.197          35.663  
G26  21078487.767   110768213.1991      -1334.540          27.198  
G27  22510678.182   118294378.386        3308.146          39.276  
G29  23535081.002                       -2886.174          21.091  
R03  24465562.444                       -3264.439          14.421  
R04  21750623.057   116473586.759        -507.435          33.714  
R05  21717133.841                        3263.135          29.283  
R10  22594545.422                       -3979.689          25.928  
R11  20436419.861   109206041.724        -569.513          36.117  
R12  22112430.583   118120636.016        3171.721          36.476  
R20  20091338.656   107437514.407       -1558.304          28.520  
R21  20179838.888   107986473.811        2371.174          30.537  
> 2020  4 16 16 14 54.0003701  0 19
G05  25387995.057                       -3122.388          16.519  
G10  24338023.537   127897273.068        4074.104          34.220  
G13  25093507.127   131867284.3111       2338.788          33.460  
G15  24644842.531   129509509.352        2826.478          36.976  
G16  20872325.290   109684870.695         910.238          31.919  
G18  20867051.941   109657108.193       -1399.558          37.369  
G20  21815420.199   114640921.313        3017.829          29.275  
G21  21025866.396   110491759.618        -711.537          35.790  
G26  21078802.549   110769863.280       -1335.441          27.924  
G27  22510112.174   118291385.571        3307.757          39.199  
G29  23535724.357                       -2880.078          22.458  
R03  24466233.379                       -3265.216          14.227  
R04  21750757.964   116474415.920        -508.256          33.237  
R05  21716596.313                        3262.285          30.733  
R10  22595356.960                       -3978.250          24.932  
R11  20436579.351   109206932.055        -570.433          35.653  
R12  22111897.852   118117785.057        3171.088          36.821  
R20  20091713.396   107439393.721       -1558.462          28.712  
R21  20179456.953   107984423.966        2370.602          31.179  
> 2020  4 16 16 14 55.0003703  0 19
G05  25388665.093                       -3123.639          16.104  
G10  24337305.534   127893514.267        4073.717          34.106  
G13  25093123.692   131865261.100        2337.973          33.410  
G15  24644365.861   129506998.145        2825.881          37.201  
G16  20872216.165   109684275.925         909.200          31.805  
G18  20867380.513   109658823.164       -1400.347          37.832  
G20  21814897.061   114638219.164        3017.017          28.725  
G21  21026069.955   110492786.416        -711.919          36.133  
G26  21079110.735   110771514.037       -1336.303          28.643  
G27  22509535.973   118288393.099        3307.265          38.997  
G29  23536359.018                       -2883.926          23.671  
R03  24466908.512                       -3265.005          13.862  
R04  21750930.044   116475246.124        -509.681          33.530  
R05  21716031.804   116084677.5251       3261.551          30.706  
R10  22596170.597                       -3978.972          24.468  
R11  20436759.826   109207823.425        -571.532          36.170  
R12  22111341.737   118114934.902        3169.962          36.761  
R20  20092061.455   107441273.614       -1559.454          28.980  
R21  20179082.812   107982374.654        2370.108          31.491  
> 2020  4 16 16 14 56.0003705  0 19
G05  25389300.953                       -3123.131          16.691  
G10  24336589.630   127889755.554        4073.737          33.990  
G13  25092736.660   131863238.378        2337.497          33.630  
G15  24643890.989   129504487.238        2825.763          37.329  
G16  20872107.341   109683681.787         908.934          31.924  
G18  20867707.886   109660538.547       -1400.478          38.052  
G20  21814381.718   114635517.462        3016.620          27.987  
G21  21026267.518   110493813.616        -712.268          36.280  
G26  21079427.916   110773165.364       -1336.559          28.657  
G27  22508968.765   118285400.857        3306.830          39.304  
G29  23536946.311                       -2889.441          22.842  
R03  24467565.057                       -3264.722          14.461  
R04  21751061.653   116476077.206        -510.485          33.240  
R05  21715465.496   116081736.694        3260.984          29.666  
R10  22596976.739                       -3981.214          24.552  
R11  20436919.915   109208715.784        -572.383          35.985  
R12  22110832.989   118112085.412        3169.361          36.666  
R20  20092397.523   107443153.898       -1560.227          28.981  
R21  20178726.958   107980325.707        2369.586          31.752  
> 2020  4 16 16 14 57.0003708  0 19
G05  25390011.161                       -3122.388          18.616  
G10  24335898.608   127886154.523        4073.504          34.133  
G13  25092381.406   131861373.562        2337.052          33.050  
G15  24643445.498   129502134.358        2825.303          37.309  
G16  20872018.902   109683245.946         908.194          31.183  
G18  20868065.239   109662411.966       -1400.998          38.219  
G20  21813907.746   114632973.773        3015.775          28.454  
G21  21026498.058   110494998.732        -712.644          36.338  
G26  21079777.474   110774974.804       -1336.982          28.946  
G27  22508423.443   118282566.367        3307.052          38.841  
G29  23537590.565                       -2889.120          23.904  
R03  24468253.980                       -3265.329          14.353  
R04  21751270.908   116477069.750        -511.327          33.068  
R05  21714941.759   116078956.775        3260.639          28.378  
R10  22597829.648                       -3980.470          25.337  
R11  20437127.971   109209769.193        -573.268          36.384  
R12  22110322.142   118109396.790        3168.723          36.951  
R20  20092792.649   107445194.846       -1560.268          29.083  
R21  20178372.603   107978437.609        2369.089          31.368  
> 2020  4 16 16 14 58.0003710  0 18
G05  25390665.008                       -3122.076          16.036  
G10  24335194.395   127882396.128        4073.107          34.170  
G13  25091993.774   131859351.877        2336.639          32.916  
G15  24642963.132   129499624.391        2824.949          37.313  
G16  20871914.574   109682653.300         907.209          31.932  
G18  20868386.916   109664128.369       -1401.633          37.905  
G20  21813409.191   114630272.995        3015.632          29.052  
G21  21026682.730   110496026.783        -713.099          36.749  
G26  21080082.363   110776627.409       -1337.689          28.790  
G27  22507855.336   118279574.702        3306.660          38.460  
G29  23538194.947                       -2885.925          24.607  
R04  21751416.308   116477902.779        -512.241          33.395  
R05  21714400.633   116076017.437        3259.465          26.716  
R10  22598609.108                       -3980.704          24.990  
R11  20437296.754   109210663.401        -574.449          35.976  
R12  22109790.011   118106548.746        3168.066          36.986  
R20  20093138.310   107447076.021       -1560.675          28.951  
R21  20177962.787   107976389.680        2368.626          30.624  
> 2020  4 16 16 14 59.0003712  0 19
G05  25391322.453                       -3121.940          14.136  
G10  24334473.395   127878637.835        4073.477          33.766  
G13  25091608.541   131857330.663        2336.178          33.068  
G15  24642488.560   129497114.853        2824.535          37.254  
G16  20871804.251   109682061.381         906.698          32.428  
G18  20868719.986   109665845.302       -1402.038          38.123  
G20  21812895.347   114627572.788        3014.929          29.265  
G21  21026888.988   110497055.268        -713.495          36.648  
G26  21080407.338   110778280.713       -1338.480          28.809  
G27  22507289.328   118276583.351        3306.375          38.053  
G29  23538814.918                       -2884.743          24.561  
R03  24469619.535                       -3265.548          14.282  
R04  21751579.995   116478736.733        -513.319          32.651  
R05  21713836.124   116073078.770        3258.542          26.831  
R10  22599409.554                       -3981.857          25.427  
R11  20437461.940   109211558.616        -575.348          36.383  
R12  22109255.481   118103701.409        3167.348          36.371  
R20  20093488.767   107448957.639       -1560.873          28.837  
R21  20177573.656   107974342.205        2368.087          30.338  
> 2020  4 16 16 15  0.0003714  0 19
G05  25391950.818                       -3121.552          13.275  
G07  25581492.501                        2380.891          14.369  
G10  24333754.792   127874879.654        4073.190          33.819  
G13  25091221.209   131855309.933        2335.325          32.537  
G15  24642016.087   129494605.642        2824.042          36.656  
G16  20871686.432   109681470.109         906.080          32.193  
G18  20869043.162   109667562.627       -1402.416          38.086  
G20  21812398.591   114624872.941        3014.731          30.248  
G21  21027085.052   110498084.094        -713.937          36.958  
G26  21080728.116   110779934.467       -1338.948          29.465  
G27  22506719.123   118273592.186        3306.018          38.268  
G29  23539438.786                       -2887.026          25.909  
R04  21751698.712   116479571.574        -514.201          31.561  
R05  21713269.816   116069870.730        3257.614          26.500  
R10  22600200.407                       -3981.891          25.331  
R11  20437630.423   109212454.685        -576.140          36.452  
R12  22108729.345   118100854.788        3166.468          36.462  
R20  20093824.835   107450839.714       -1561.750          28.856  
R21  20177182.127   107972295.152        2367.762          29.947  
> 2020  4 16 16 15  1.0003717  0 18
G10  24333080.259   127871279.184        4073.153          33.313  
G13  25090874.949   131853447.228        2335.351          32.754  
G15  24641568.197   129492254.402        2823.809          36.494  
G16  20871615.681   109681037.086         905.410          32.624  
G18  20869399.915   109669438.011       -1402.951          38.307  
G20  21811901.835   114622331.204        3014.356          29.743  
G21  21027305.999   110499270.854        -714.138          37.022  
G26  21081081.271   110781746.464       -1339.608          29.200  
G27  22506175.599   118270758.840        3305.889          38.355  
G29  23540077.044                       -2887.220          26.195  
R03  24470998.580                       -3268.649          13.391  
R04  21751872.292   116480288.011        -515.650          30.897  
R05  21712766.165   116067093.527        3257.679          26.763  
R10  22601051.218                       -3982.533          24.641  
R11  20437814.795   109213511.963        -577.089          36.307  
R12  22108232.889   118098169.064        3165.826          36.793  
R20  20094204.971   107452882.503       -1561.989          29.044  
R21  20176842.463   107970408.964        2367.429          28.561  
> 2020  4 16 16 15  2.0003719  0 17
G10  24332362.556   127867521.193        4072.880          34.262  
G13  25090491.514   131851427.416        2334.904          33.123  
G15  24641087.330   129489745.985        2823.349          36.299  
G16  20871505.058   109680447.128         904.876          32.966  
G18  20869726.389   109671156.220       -1403.285          38.224  
G20  21811389.489   114619632.248        3013.883          30.081  
G21  21027510.757   110500300.378        -714.595          36.943  
G26  21081396.353   110783401.365       -1340.000          29.503  
G27  22505606.293   118267768.133        3305.599          37.979  
G29  23540676.629                       -2887.243          24.339  
R04  21752053.667   116481124.532        -515.917          31.404  
R05  21712223.840   116064156.727        3256.984          27.144  
R10  22601875.347                       -3982.343          25.951  
R11  20437989.574   109214409.856        -577.853          36.319  
R12  22107700.757   118095323.736        3165.338          36.851  
R20  20094568.919   107454765.348       -1562.650          29.011  
R21  20176463.825   107968362.711        2367.075          28.758  
> 2020  4 16 16 15  3.0003721  0 17
G10  24331653.847   127863763.241        4073.086          34.092  
G13  25090108.379   131849408.094        2334.410          32.778  
G15  24640610.660   129487237.854        2823.078          34.622  
G16  20871400.430   109679857.872         904.172          32.869  
G18  20870054.362   109672874.859       -1403.579          38.450  
G20  21810878.643   114616933.777        3013.540          30.183  
G21  21027699.327   110501330.286        -714.985          36.976  
G26  21081708.437   110785056.889       -1340.558          29.874  
G27  22505039.685   118264777.648        3305.637          37.942  
G29  23541279.511                       -2886.949          24.710  
R04  21752225.747   116481962.114        -516.793          32.321  
R05  21711654.235   116061220.642        3256.426          26.494  
R10  22602664.701                       -3982.346          25.284  
R11  20438152.661   109215308.679        -578.713          35.214  
R12  22107149.739   118092479.123        3164.700          36.010  
R20  20094919.077   107456648.553       -1562.792          28.584  
R21  20176083.088   107966316.914        2366.298          28.706  
> 2020  4 16 16 15  4.0003723  0 17
G10  24330937.642   127860005.008        4073.471          33.929  
G13  25089719.249   131847388.838        2334.219          32.848  
G15  24640134.890   129484729.718        2823.204          34.070  
G16  20871286.809   109679268.860         903.765          33.209  
G18  20870383.834   109674593.558       -1403.611          38.495  
G20  21810370.495   114614235.274        3013.684          31.162  
G21  21027899.588   110502360.101        -714.615          37.033  
G26  21082014.525   110786712.676       -1340.865          29.761  
G27  22504466.782   118261786.997        3305.791          38.004  
G29  23541872.501                       -2887.297          25.450  
R04  21752374.445   116482800.146        -517.344          32.413  
R05  21711118.805   116058284.755        3256.393          27.776  
R10  22603457.952                       -3982.300          26.082  
R11  20438313.950   109216207.953        -579.320          34.808  
R12  22106625.102   118089634.820        3164.390          36.763  
R20  20095283.025   107458531.741       -1562.621          28.941  
R21  20175690.960   107964271.132        2366.308          28.851  
> 2020  4 16 16 15  5.0003726  0 18
G10  24330250.818   127856404.470        4072.990          34.031  
G13  25089372.389   131845527.463        2333.781          33.089  
G15  24639684.002   129482379.551        2822.565          34.461  
G16  20871201.068   109678838.065         903.002          33.422  
G18  20870742.685   109676470.255       -1404.106          38.596  
G20  21809874.938   114611694.787        3012.986          32.372  
G21  21028121.734   110503547.902        -715.358          36.901  
G26  21082364.982   110788526.505       -1341.427          29.213  
G27  22503935.849   118258954.157        3305.362          38.082  
G29  23542523.950                       -2887.212          26.424  
R03  24473714.700                       -3269.860          12.499  
R04  21752563.614   116483799.623        -518.284          32.485  
R05  21710595.667   116055509.868        3255.215          28.136  
R10  22604331.547                       -3982.653          26.618  
R11  20438519.607   109217268.450        -580.034          34.769  
R12  22106108.559   118086951.314        3163.520          36.246  
R20  20095663.462   107460575.723       -1563.269          28.736  
R21  20175336.305   107962386.132        2365.655          29.643  
> 2020  4 16 16 15  6.0003728  0 18
G10  24329536.712   127852646.571        4072.721          34.047  
G13  25088993.451   131843509.320        2332.830          33.727  
G15  24639209.730   129479872.312        2821.972          33.509  
G16  20871089.845   109678250.533         902.215          34.419  
G18  20871070.359   109678190.010       -1404.932          38.742  
G20  21809359.894   114608997.397        3012.441          32.105  
G21  21028316.599   110504578.654        -715.881          36.828  
G26  21082671.071   110790183.543       -1342.395          29.097  
G27  22503365.344   118255964.150        3304.766          37.900  
G29  23543116.640                       -2887.716          25.944  
R03  24474375.143                       -3269.982          13.369  
R04  21752723.703   116484639.656        -519.543          33.492  
R05  21710067.733   116052575.377        3254.552          28.064  
R10  22605132.892                       -3983.437          26.452  
R11  20438686.292   109218169.742        -581.444          35.268  
R12  22105593.516   118084108.435        3162.506          36.025  
R20  20096008.823   107462459.884       -1563.996          29.139  
R21  20174951.971   107960341.242        2365.370          29.478  
> 2020  4 16 16 15  7.0003730  0 17
G10  24328828.902   127848888.939        4072.623          34.283  
G13  25088608.818   131841491.668        2332.563          33.103  
G15  24638742.054   129477365.593        2821.453          34.041  
G16  20870970.828   109677663.798         901.528          34.437  
G18  20871398.032   109679910.321       -1405.405          38.367  
G20  21808862.239   114606300.571        3011.515          32.357  
G21  21028515.062   110505609.865        -716.320          36.918  
G26  21082979.257   110791841.189       -1342.827          28.554  
G27  22502792.441   118252974.472        3304.536          37.697  
G29  23543742.306   123723163.5271      -2887.688          25.709  
R04  21752874.798   116485480.631        -520.439          33.179  
R05  21709509.519   116049641.733        3254.035          28.518  
R10  22605897.363                       -3984.163          26.101  
R11  20438841.884   109219072.105        -582.499          35.324  
R12  22105046.994   118081266.377        3161.998          35.803  
R20  20096382.364   107464344.563       -1564.128          29.546  
R21  20174593.719   107958296.939        2364.791          31.131  
> 2020  4 16 16 15  8.0003732  0 17
G10  24328115.096   127845131.395        4072.724          34.216  
G13  25088228.081   131839474.676        2332.171          33.177  
G15  24638253.992   129474859.312        2821.345          35.098  
G16  20870866.500   109677077.822         900.888          34.258  
G18  20871720.608   109681631.131       -1405.758          38.059  
G20  21808353.491   114603604.218        3011.194          32.444  
G21  21028704.531   110506641.536        -716.652          36.525  
G26  21083304.232   110793499.584       -1343.803          28.342  
G27  22502227.932   118249985.121        3304.283          37.981  
G29  23544336.195   123726366.677       -2887.852          25.516  
R04  21753035.787   116486322.650        -520.964          33.294  
R05  21708961.199   116046708.809        3253.056          28.804  
R10  22606709.201   120591335.5671      -3983.891          25.808  
R11  20439006.470   109219975.336        -582.975          35.791  
R12  22104510.066   118078425.121        3161.489          35.713  
R20  20096712.136   107466229.728       -1564.359          29.672  
R21  20174188.400   107956253.147        2364.870          31.359  
> 2020  4 16 16 15  9.0003734  0 17
G10  24327394.096   127841374.059        4072.759          33.584  
G13  25087836.852   131837458.124        2331.554          33.124  
G15  24637774.024   129472353.498        2820.659          34.765  
G16  20870752.878   109676492.601         900.083          34.683  
G18  20872052.179   109683352.491       -1406.425          38.246  
G20  21807837.848   114600908.355        3011.126          33.571  
G21  21028907.190   110507673.646        -716.919          36.155  
G26  21083629.507   110795158.570       -1344.074          28.711  
G27  22501660.425   118246996.059        3304.343          37.749  
G29  23544940.577                       -2890.271          24.388  
R04  21753182.985   116487165.681        -522.426          33.627  
R05  21708434.164   116043776.611        3252.477          29.324  
R10  22607531.232   120595639.468       -3983.809          26.927  
R11  20439175.253   109220879.739        -584.138          35.582  
R12  22103971.639   118075584.710        3160.558          34.955  
R20  20097075.484   107468115.424       -1565.037          29.828  
R21  20173819.655   107954209.846        2364.174          31.702  
> 2020  4 16 16 15 10.0003737  0 17
G10  24326709.070   127837774.466        4072.336          33.361  
G13  25087480.998   131835599.622        2331.412          32.589  
G15  24637332.130   129470005.651        2820.733          35.339  
G16  20870664.739   109676065.652         899.550          34.963  
G18  20872407.433   109685231.878       -1406.764          38.205  
G20  21807344.689   114598370.599        3010.468          33.377  
G21  21029122.142   110508863.740        -717.345          35.779  
G26  21083967.973   110796975.818       -1344.353          28.552  
G27  22501114.802   118244164.843        3304.185          37.721  
G29  23545578.835                       -2890.116          24.055  
R04  21753382.047   116488170.148        -523.223          34.254  
R05  21707907.428   116041005.356        3251.941          29.433  
R10  22608384.441   120600103.702       -3984.204          26.798  
R11  20439382.710   109221945.232        -585.104          35.720  
R12  22103468.587   118072905.081        3160.023          35.039  
R20  20097459.518   107470161.907       -1565.335          29.840  
R21  20173477.892   107952327.443        2363.907          31.912  
> 2020  4 16 16 15 11.0003739  0 18
G10  24325990.467   127834017.260        4072.369          33.646  
G13  25087104.759   131833583.992        2330.600          33.183  
G15  24636855.160   129467500.519        2820.139          35.179  
G16  20870561.611   109675481.671         898.942          34.916  
G18  20872735.706   109686954.058       -1407.263          38.016  
G20  21806843.137   114595675.635        3009.767          33.754  
G21  21029320.604   110509896.544        -717.776          35.515  
G26  21084291.749   110798636.007       -1345.598          28.481  
G27  22500552.692   118241176.223        3303.670          38.312  
G29  23546182.317                       -2888.571          24.529  
R03  24477762.498                       -3271.105          13.454  
R04  21753522.350   116489014.850        -524.119          34.033  
R05  21707349.814   116038074.416        3251.220          30.011  
R10  22609212.468   120604408.156       -3984.796          26.773  
R11  20439556.290   109222851.314        -586.061          35.884  
R12  22102944.250   118070065.869        3159.246          35.314  
R20  20097803.380   107472048.329       -1565.760          29.682  
R21  20173094.757   107950284.944        2363.063          32.271  
> 2020  4 16 16 15 12.0003741  0 18
G10  24325284.456   127830260.132        4072.341          34.360  
G13  25086716.228   131831568.753        2330.402          33.774  
G15  24636389.582   129464995.741        2819.800          34.548  
G16  20870448.589   109674898.387         898.055          34.534  
G18  20873063.679   109688676.666       -1407.530          37.924  
G20  21806323.596   114592980.994        3009.838          33.918  
G21  21029514.870   110510929.648        -717.842          35.126  
G26  21084588.243   110800296.604       -1345.650          28.439  
G27  22499977.690   118238187.815        3303.385          38.117  
G29  23546793.594                       -2888.325          24.521  
R03  24478455.018                       -3271.649          13.385  
R04  21753696.229   116489860.341        -524.796          34.441  
R05  21706811.087   116035144.085        3250.803          29.966  
R10  22609984.134   120608712.775       -3984.428          27.663  
R11  20439723.574   109223758.274        -586.896          36.372  
R12  22102394.731   118067227.255        3158.641          35.074  
R20  20098145.144   107473935.191       -1566.384          30.011  
R21  20172715.220   107948242.822        2362.858          32.961  
> 2020  4 16 16 15 13.0003743  0 18
G10  24324571.250   127826503.066        4072.229          34.540  
G13  25086340.588   131829554.035        2329.576          33.957  
G15  24635915.611   129462491.284        2819.495          34.751  
G16  20870334.068   109674315.674         897.601          34.480  
G18  20873386.255   109690399.673       -1408.102          37.955  
G20  21805813.350   114590286.832        3009.095          34.128  
G21  21029719.028   110511963.101        -718.369          35.355  
G26  21084930.306   110801957.817       -1346.301          28.137  
G27  22499413.180   118235199.586        3303.373          37.596  
G29  23547430.953                       -2888.678          24.751  
R03  24479111.264                       -3272.841          14.078  
R04  21753864.413   116490706.817        -525.807          34.437  
R05  21706264.866   116032214.394        3249.903          30.911  
R10  22610822.353   120613017.702       -3984.823          28.073  
R11  20439895.954   109224666.131        -587.853          36.471  
R12  22101882.085   118064389.339        3158.093          35.224  
R20  20098522.882   107475822.386       -1566.830          29.878  
R21  20172341.079   107946201.110        2362.482          33.381  
> 2020  4 16 16 15 14.0003746  0 18
G10  24323888.922   127822903.463        4072.255          34.417  
G13  25085979.338   131827697.142        2329.384          34.001  
G15  24635471.018   129460144.578        2819.289          33.930  
G16  20870255.823   109673891.058         897.162          34.563  
G18  20873743.008   109692280.487       -1408.312          37.851  
G20  21805338.178   114587750.500        3008.572          34.551  
G21  21029939.076   110513154.326        -718.662          35.150  
G26  21085275.368   110803776.985       -1346.551          28.588  
G27  22498869.057   118232368.955        3303.368          38.027  
G29  23548060.817                       -2888.832          25.497  
R03  24479853.250                       -3273.946          15.139  
R04  21754040.991   116491714.551        -526.468          33.259  
R05  21705746.524   116029445.421        3249.648          31.004  
R10  22611672.565   120617790.630       -3985.225          28.721  
R11  20440103.711   109225734.923        -588.537          36.740  
R12  22101382.331   118061712.117        3157.444          35.876  
R20  20098906.916   107477870.144       -1567.074          30.072  
R21  20171988.223   107944320.093        2362.219          33.562  
> 2020  4 16 16 15 15.0003748  0 18
G10  24323165.523   127819146.225        4072.547          34.302  
G13  25085604.897   131825682.967        2329.009          34.615  
G15  24634976.960   129457640.537        2819.059          33.857  
G16  20870149.696   109673309.373         896.598          34.598  
G18  20874075.778   109694004.095       -1408.667          38.030  
G20  21804827.332   114585056.866        3008.340          34.282  
G21  21030142.635   110514188.181        -718.712          35.574  
G26  21085600.043   110805439.060       -1347.216          28.714  
G27  22498300.651   118229380.869        3303.309          38.399  
G29  23548672.693   123749108.1061      -2889.256          25.921  
R03  24480535.578                       -3276.574          16.051  
R04  21754205.277   116492562.497        -527.307          33.537  
R05  21705184.414   116026516.724        3248.565          30.870  
R10  22612476.608   120622095.735       -3985.375          28.344  
R11  20440281.787   109226644.206        -589.204          37.680  
R12  22100841.506   118058875.213        3156.994          35.755  
R20  20099250.179   107479757.804       -1567.038          29.908  
R21  20171593.396   107942278.876        2361.800          33.463  
> 2020  4 16 16 15 16.0003750  0 18
G10  24322450.818   127815388.918        4072.588          34.123  
G13  25085218.764   131823669.055        2328.712          33.927  
G15  24634509.884   129455136.678        2818.852          33.785  
G16  20870036.974   109672728.193         895.810          34.435  
G18  20874395.057   109695727.900       -1408.997          37.746  
G20  21804311.090   114582363.448        3008.556          34.151  
G21  21030338.100   110515222.198        -718.990          35.512  
G26  21085916.024   110807101.481       -1347.634          28.876  
G27  22497736.441   118226392.826        3303.279          38.293  
G29  23549297.161   123752312.028       -2889.500          26.230  
R03  24481153.450                       -3274.098          14.803  
R04  21754361.469   116493411.088        -527.793          34.031  
R05  21704637.592   116023588.377        3248.371          31.455  
R10  22613290.545   120626400.869       -3985.224          27.691  
R11  20440438.879   109227554.216        -589.936          37.407  
R12  22100320.467   118056038.754        3156.379          35.819  
R20  20099618.024   107481645.669       -1567.168          29.903  
R21  20171216.857   107940237.815        2361.754          33.872  
> 2020  4 16 16 15 17.0003752  0 18
G10  24321730.117   127811631.494        4072.818          34.203  
G13  25084831.133   131821655.483        2328.475          34.392  
G15  24634037.411   129452633.025        2818.612          34.386  
G16  20869925.151   109672147.455         895.615          34.807  
G18  20874727.227   109697451.949       -1408.933          37.984  
G20  21803802.941   114579670.348        3008.243          34.075  
G21  21030541.959   110516256.396        -719.006          35.827  
G26  21086232.905   110808764.223       -1347.497          28.748  
G27  22497169.234   118223404.836        3303.025          38.353  
G29  23549894.647   123755515.865       -2888.671          25.637  
R03  24481806.698                       -3273.661          13.302  
R04  21754535.948   116494551.343        -528.209          34.510  
R05  21704085.374   116020660.510        3248.393          31.522  
R10  22614076.001   120630706.066       -3984.985          27.840  
R11  20440605.563   109228465.053        -590.674          37.585  
R12  22099786.536   118053202.781        3156.325          35.735  
R20  20099937.303   107483533.726       -1567.356          29.713  
R21  20170827.427   107938197.046        2361.565          34.110  
> 2020  4 16 16 15 18.0003755  0 17
G10  24321042.093   127808031.256        4073.142          33.951  
G13  25084485.172   131819799.355        2328.773          34.833  
G15  24633584.424   129450286.766        2818.955          34.804  
G16  20869838.811   109671724.427         895.717          34.433  
G18  20875086.079   109699333.522       -1408.888          38.057  
G20  21803320.275   114577134.741        3008.138          34.174  
G21  21030771.300   110517448.017        -718.726          36.031  
G26  21086568.073   110810584.684       -1347.874          28.582  
G27  22496626.010   118220574.084        3303.705          38.619  
G29  23550542.798   123758876.986       -2888.434          26.035  
R04  21754702.933   116495561.642        -528.983          33.601  
R05  21703570.631   116017893.180        3247.995          31.510  
R10  22614910.024   120635170.911       -3984.661          27.901  
R11  20440824.412   109229536.417        -590.852          37.802  
R12  22099287.681   118050527.223        3156.130          36.166  
R20  20100346.819   107485582.016       -1567.243          29.341  
R21  20170465.277   107936316.614        2361.819          33.611  
> 2020  4 16 16 15 19.0003757  0 17
G10  24320343.876   127804272.999        4073.519          34.472  
G13  25084094.543   131817785.673        2328.566          35.342  
G15  24633092.465   129447782.838        2818.826          34.592  
G16  20869729.987   109671144.003         895.241          34.335  
G18  20875412.852   109701057.448       -1409.071          38.219  
G20  21802812.127   114574441.481        3008.121          34.305  
G21  21030964.666   110518481.919        -718.898          36.282  
G26  21086907.438   110812247.619       -1347.977          28.410  
G27  22496062.100   118217585.559        3303.468          38.730  
G29  23551152.277   123762080.152       -2888.227          25.927  
R04  21754868.118   116496411.668        -529.643          33.309  
R05  21703039.698   116014965.596        3247.969          31.284  
R10  22615730.556   120639475.597       -3984.668          27.894  
R11  20440995.293   109230447.966        -591.519          37.692  
R12  22098757.648   118047691.655        3155.482          35.852  
R20  20100674.193   107487469.803       -1567.120          29.320  
R21  20170097.432   107934275.663        2361.627          32.958  
> 2020  4 16 16 15 20.0003759  0 17
G10  24319632.169   127800514.716        4073.322          34.717  
G13  25083709.309   131815772.288        2328.145          34.798  
G15  24632615.795   129445279.104        2818.502          33.905  
G16  20869628.357   109670564.124         894.501          34.613  
G18  20875739.027   109702781.676       -1409.396          38.293  
G20  21802293.786   114571748.512        3007.814          33.895  
G21  21031156.833   110519516.052        -719.351          36.479  
G26  21087215.325   110813911.044       -1348.469          28.551  
G27  22495493.094   118214597.071        3303.461          38.417  
G29  23551745.266   123765283.337       -2888.043          26.128  
R04  21755031.205   116497262.556        -530.429          33.262  
R05  21702483.583   116012038.526        3247.171          30.979  
R10  22616521.708   120643780.311       -3984.768          27.652  
R11  20441152.085   109231360.292        -592.420          37.594  
R12  22098229.114   118044856.551        3155.064          35.543  
R20  20101030.646   107489357.906       -1567.632          29.359  
R21  20169711.599   107932234.987        2361.161          33.183  
> 2020  4 16 16 15 21.0003761  0 17
G10  24318904.872   127796756.560        4073.286          34.823  
G13  25083329.173   131813759.496        2327.752          35.348  
G15  24632141.823   129442775.788        2818.293          33.935  
G16  20869517.134   109669984.899         893.992          34.503  
G18  20876073.895   109704506.386       -1409.802          38.587  
G20  21801764.652   114569056.072        3007.391          33.103  
G21  21031357.094   110520550.597        -719.616          36.686  
G26  21087524.111   110815575.062       -1349.357          27.919  
G27  22494925.587   118211608.899        3303.186          38.804  
G29  23552381.126   123768486.748       -2888.261          26.652  
R04  21755191.894   116498114.299        -531.058          33.967  
R05  21701942.158   116009112.159        3246.551          30.994  
R10  22617359.928   120648085.458       -3985.404          27.423  
R11  20441326.564   109232273.535        -593.086          37.736  
R12  22097704.478   118042022.161        3154.482          36.348  
R20  20101400.890   107491246.459       -1568.307          29.436  
R21  20169341.056   107930194.699        2361.044          32.699  
> 2020  4 16 16 15 22.0003764  0 17
G10  24318233.637   127793156.214        4072.925          34.903  
G13  25082979.615   131811904.769        2326.965          35.130  
G15  24631705.925   129440430.603        2817.529          33.808  
G16  20869430.494   109669564.119         892.986          34.531  
G18  20876432.447   109706389.270       -1410.593          38.748  
G20  21801276.590   114566521.764        3006.726          32.608  
G21  21031583.438   110521743.224        -720.264          36.467  
G26  21087875.168   110817397.336       -1350.344          27.140  
G27  22494389.258   118208778.660        3302.785          39.007  
G29  23553033.774   123771848.049       -2888.847          27.571  
R04  21755384.661   116499127.743        -532.387          33.473  
R05  21701406.129   116006346.911        3245.591          30.797  
R10  22618195.149   120652550.834       -3985.860          28.695  
R11  20441537.918   109233348.030        -594.593          38.415  
R12  22097192.132   118039348.858        3153.448          36.438  
R20  20101789.721   107493295.894       -1568.988          29.731  
R21  20168978.906   107928315.538        2360.102          32.760  
> 2020  4 16 16 15 23.0003766  0 17
G10  24317522.829   127789398.840        4072.264          34.574  
G13  25082592.582   131809893.414        2326.190          35.196  
G15  24631224.158   129437928.608        2816.824          33.898  
G16  20869331.562   109668986.847         891.977          34.825  
G18  20876764.017   109708115.431       -1411.361          39.260  
G20  21800755.551   114563830.745        3005.716          32.742  
G21  21031783.399   110522779.036        -720.870          36.738  
G26  21088172.262   110819062.973       -1350.749          26.960  
G27  22493821.751   118205791.515        3302.082          38.751  
G29  23553623.766   123775052.342       -2889.105          27.482  
R04  21755551.045   116499981.898        -533.638          33.879  
R05  21700846.716   116003422.500        3244.410          30.399  
R10  22618979.107   120656857.016       -3986.723          27.341  
R11  20441717.493   109234263.772        -595.978          38.805  
R12  22096661.200   118036516.506        3152.282          36.458  
R20  20102142.876   107495185.798       -1569.471          29.838  
R21  20168591.275   107926276.725        2359.338          32.152  
> 2020  4 16 16 15 24.0003768  0 18
G05  25407811.038                       -3125.720          14.040  
G10  24316792.235   127785641.807        4072.077          34.417  
G13  25082206.450   131807882.808        2325.309          35.066  
G15  24630752.885   129435427.269        2816.168          34.300  
G16  20869216.142   109668410.490         891.082          34.558  
G18  20877097.086   109709842.319       -1412.165          39.225  
G20  21800250.401   114561140.435        3005.224          33.192  
G21  21031974.067   110523815.512        -721.642          36.610  
G26  21088479.849   110820729.590       -1352.229          26.046  
G27  22493252.445   118202804.895        3301.536          38.728  
G29  23554227.548   123778257.133       -2890.127          26.160  
R04  21755693.447   116500837.255        -534.940          33.467  
R05  21700337.069   116000498.954        3243.556          30.728  
R10  22619791.544   120661163.719       -3987.178          27.506  
R11  20441875.484   109235180.650        -597.021          38.394  
R12  22096138.662   118033684.995        3151.359          36.188  
R20  20102485.239   107497076.436       -1570.269          30.114  
R21  20168229.126   107924238.638        2358.886          31.557  
> 2020  4 16 16 15 25.0003770  0 18
G05  25408457.691                       -3124.684          14.475  
G10  24316085.324   127781884.971        4071.629          34.764  
G13  25081825.114   131805872.779        2324.465          34.967  
G15  24630274.116   129432926.380        2815.653          34.844  
G16  20869113.313   109667834.922         890.045          34.040  
G18  20877426.858   109711569.759       -1412.811          39.565  
G20  21799737.456   114558450.699        3004.327          32.954  
G21  21032180.924   110524852.444        -722.172          36.828  
G26  21088802.126   110822396.866       -1352.930          26.217  
G27  22492687.337   118199818.583        3301.035          38.679  
G29  23554831.929   123781462.094       -2890.269          26.946  
R04  21755868.825   116501693.531        -535.720          32.905  
R05  21699789.948   115997576.171        3242.721          31.513  
R10  22620603.082   120665470.735       -3987.497          27.964  
R11  20442050.563   109236098.515        -598.028          38.261  
R12  22095603.232   118030854.289        3150.546          36.006  
R20  20102839.294   107498967.569       -1570.785          29.802  
R21  20167836.997   107922201.032        2357.825          31.665  
> 2020  4 16 16 15 26.0003773  0 18
G05  25409141.218                       -3128.459          14.161  
G10  24315402.697   127778286.023        4071.698          34.378  
G13  25081474.656   131804020.966        2324.414          35.160  
G15  24629829.824   129430583.704        2815.282          34.527  
G16  20869023.676   109667417.842         889.329          33.918  
G18  20877782.412   109713455.430       -1413.169          39.721  
G20  21799249.394   114555919.182        3004.216          32.448  
G21  21032396.775   110526047.573        -722.587          36.747  
G26  21089144.489                       -1351.653          25.099  
G27  22492142.014   118196990.334        3300.773          38.520  
G29  23555498.368   123784825.141       -2890.603          27.765  
R04  21756043.904   116502711.562        -536.664          33.287  
R05  21699265.311   115994814.541        3242.237          31.973  
R10  22621432.608   120669938.247       -3987.832          27.901  
R11  20442247.227   109237177.786        -599.180          38.389  
R12  22095103.178   118028184.752        3149.753          36.252  
R20  20103236.819   107501019.723       -1571.541          30.100  
R21  20167502.728   107920324.562        2357.758          31.404  
> 2020  4 16 16 15 27.0003775  0 19
G05  25409786.971                       -3126.429          13.576  
G10  24314685.593   127774529.709        4071.284          34.361  
G13  25081088.824   131802012.113        2323.710          35.529  
G15  24629360.948   129428083.896        2814.505          35.481  
G16  20868920.247   109666843.880         888.624          33.978  
G18  20878115.781   109715184.020       -1413.640          39.587  
G20  21798748.141   114553230.614        3003.284          32.548  
G21  21032595.237   110527085.514        -723.027          36.334  
G26  21089455.074                       -1353.794          25.161  
G27  22491576.905   118194004.756        3300.594          38.933  
G29  23556108.445   123788030.733       -2891.016          27.820  
R03  24488609.588                       -3277.525          13.678  
R04  21756210.589   116503570.009        -538.086          32.935  
R05  21698732.880   115992162.350        3241.358          32.046  
R10  22622251.641   120674246.108       -3988.018          27.094  
R11  20442430.100   109238097.716        -600.026          38.310  
R12  22094582.739   118025355.720        3148.969          35.967  
R20  20103575.284   107502911.884       -1571.644          29.954  
R21  20167096.809   107918287.996        2357.401          31.099  
> 2020  4 16 16 15 28.0003777  0 18
G05  25410434.222                       -3128.480          13.019  
G10  24313976.284   127770773.535        4071.188          34.399  
G13  25080710.785   131800003.849        2323.220          35.502  
G15  24628873.486   129425584.550        2814.279          34.923  
G16  20868803.028   109666270.671         888.289          34.115  
G18  20878438.658   109716913.212       -1414.360          39.250  
G20  21798218.407   114550542.575        3002.664          32.222  
G21  21032790.102   110528123.944        -723.676          36.295  
G26  21089775.552                       -1356.745          24.417  
G27  22491009.698   118191019.582        3299.900          39.015  
G29  23556696.638   123791236.629       -2891.138          27.724  
R04  21756352.990   116504429.448        -538.835          32.583  
R05  21698155.779   115989241.907        3240.635          31.666  
R10  22623038.296   120678554.381       -3988.656          27.685  
R11  20442590.489   109239018.781        -601.117          38.385  
R12  22094043.112   118022527.463        3147.908          36.207  
R20  20103931.438   107504804.650       -1572.369          30.072  
R21  20166716.673   107916252.129        2356.353          30.698  
> 2020  4 16 16 15 29.0003779  0 17
G10  24313266.076   127767017.758        4070.849          35.219  
G13  25080331.248   131797996.363        2322.545          35.704  
G15  24628407.009   129423085.827        2813.780          34.766  
G16  20868697.202   109665698.450         886.956          33.653  
G18  20878771.427   109718643.048       -1414.945          39.254  
G20  21797711.758   114547855.183        3002.410          31.872  
G21  21032989.464   110529162.968        -723.828          36.088  
G26  21090079.542                       -1354.708          24.277  
G27  22490438.893   118188034.845        3299.598          38.854  
G29  23557318.708   123794442.904       -2891.576          26.888  
R04  21756525.671   116505290.081        -540.284          33.076  
R05  21697624.847   115986322.446        3239.714          31.369  
R10  22623843.839   120682863.138       -3989.206          27.920  
R11  20442759.572   109239940.990        -602.106          38.260  
R12  22093519.075   118019700.136        3147.447          36.172  
R20  20104280.097   107506698.011       -1572.967          30.090  
R21  20166345.529   107914216.840        2356.233          29.766  
> 2020  4 16 16 15 30.0003782  0 18
G10  24312578.352   127763419.819        4070.196          35.433  
G13  25079980.491   131796147.073        2321.623          35.980  
G15  24627962.117   129420745.229        2812.951          35.663  
G16  20868610.861   109665284.658         885.735          33.863  
G18  20879126.681   109720531.105       -1415.864          39.314  
G20  21797245.581   114545326.101        3001.279          32.663  
G21  21033216.107   110530360.163        -724.980          36.289  
G26  21090429.400                       -1356.386          23.583  
G27  22489903.764   118185208.140        3299.003          38.309  
G29  23557955.767   123797807.132       -2891.740          27.884  
R03  24490666.464                       -3280.482          12.588  
R04  21756711.542   116506312.308        -541.325          31.922  
R05  21697109.803   115983564.119        3238.659          31.321  
R10  22624695.549   120687332.300       -3989.561          27.300  
R11  20442960.433   109241024.529        -603.645          37.779  
R12  22093026.216   118017033.924        3145.929          36.148  
R20  20104663.831   107508752.348       -1574.039          30.338  
R21  20166004.965   107912342.670        2355.154          28.769  
> 2020  4 16 16 15 31.0003784  0 17
G10  24311868.144   127759664.755        4069.674          34.551  
G13  25079602.453   131794141.063        2320.604          35.707  
G15  24627485.746   129418247.821        2812.319          34.722  
G16  20868495.141   109664714.220         885.332          33.207  
G18  20879455.554   109722262.377       -1416.357          39.341  
G20  21796729.938   114542640.155        3000.672          32.762  
G21  21033406.176   110531400.496        -725.748          35.840  
G26  21090759.771                       -1357.375          23.205  
G27  22489329.661   118182224.428        3298.539          38.547  
G29  23558556.551   123801014.313       -2892.102          27.586  
R04  21756877.627   116507175.179        -542.670          32.412  
R05  21696567.479   115980646.476        3237.650          31.505  
R10  22625527.473   120691642.122       -3990.263          27.226  
R11  20443123.220   109241949.076        -604.595          37.334  
R12  22092501.280   118014208.522        3145.346          36.303  
R20  20105028.978   107510647.019       -1574.232          30.199  
R21  20165620.931   107910308.803        2354.732          27.758  
> 2020  4 16 16 15 32.0003786  0 17
G10  24311155.537   127755909.970        4070.253          34.615  
G13  25079224.114   131792135.705        2320.415          35.679  
G15  24627010.575   129415751.014        2811.746          34.934  
G16  20868391.713   109664144.794         884.233          32.670  
G18  20879783.227   109723994.391       -1417.163          39.392  
G20  21796216.693   114539954.946        3000.331          32.233  
G21  21033614.532   110532441.426        -726.099          35.581  
G26  21091050.869                       -1360.184          22.564  
G27  22488766.951   118179241.221        3298.179          38.544  
G29  23559185.515   123804221.908       -2892.429          28.202  
R04  21757042.513   116508039.306        -543.367          33.339  
R05  21696011.963   115977729.691        3236.965          31.574  
R10  22626319.525   120695952.371       -3990.199          27.230  
R11  20443315.687   109242874.802        -605.828          37.143  
R12  22091978.142   118011384.108        3144.340          36.658  
R20  20105369.842   107512542.410       -1574.891          30.269  
R21  20165229.702   107908275.546        2354.259          27.460  
> 2020  4 16 16 15 33.0003788  0 18
G05  25413749.927                       -3129.212          13.315  
G10  24310426.742   127752155.450        4069.208          34.525  
G13  25078833.185   131790130.903        2319.588          35.697  
G15  24626534.505   129413254.636        2811.218          34.833  
G16  20868295.180   109663575.985         883.249          33.924  
G18  20880118.994   109725726.829       -1417.647          39.497  
G20  21795703.149   114537270.194        2999.577          32.224  
G21  21033811.795   110533482.723        -726.525          35.537  
G26  21091399.228                       -1358.541          23.917  
G27  22488192.248   118176258.245        3297.723          38.332  
G29  23559790.796   123807429.706       -2892.925          28.634  
R04  21757179.518   116508904.358        -544.526          32.675  
R05  21695456.448   115974813.600        3236.176          30.807  
R10  22627102.883   120700263.001       -3991.251          26.235  
R11  20443476.076   109243801.397        -606.739          37.052  
R12  22091450.807   118008560.366        3143.578          36.898  
R20  20105741.285   107514438.219       -1575.498          30.238  
R21  20164826.481   107906242.865        2353.425          26.725  
> 2020  4 16 16 15 34.0003790  0 18
G05  25414403.475                       -3129.669          14.608  
G10  24309724.328   127748401.066        4069.506          34.707  
G13  25078450.650   131788126.703        2319.101          35.610  
G15  24626047.342   129410758.767        2810.775          34.371  
G16  20868190.253   109663008.079         882.971          34.061  
G18  20880449.665   109727459.870       -1418.091          39.211  
G20  21795202.195   114534586.061        2999.124          32.167  
G21  21034007.260   110534524.594        -726.899          35.621  
G26  21091695.723                       -1358.920          24.016  
G27  22487622.343   118173275.692        3297.651          38.037  
G29  23560401.773   123810637.813       -2892.963          28.402  
R04  21757365.389   116509770.493        -545.384          32.669  
R05  21694920.719   115971898.372        3235.536          30.609  
R10  22627927.911   120704573.985       -3991.201          26.996  
R11  20443658.050   109244729.168        -607.731          37.021  
R12  22090905.185   118005737.474        3142.952          36.625  
R20  20106085.447   107516334.599       -1575.806          29.854  
R21  20164445.145   107904210.742        2352.695          26.307  
> 2020  4 16 16 15 35.0003793  0 18
G05  25415095.995                       -3129.390          15.581  
G10  24309026.111   127744804.368        4069.262          34.993  
G13  25078093.297   131786280.511        2318.697          35.697  
G15  24625601.851   129408420.771        2810.448          34.101  
G16  20868115.604   109662598.353         882.180          34.275  
G18  20880800.722   109729350.888       -1418.571          38.677  
G20  21794718.930   114532059.894        2998.831          32.475  
G21  21034243.196   110535724.293        -726.966          36.221  
G26  21092044.681                       -1357.948          24.435  
G27  22487092.310   118170450.886        3297.424          38.222  
G29  23561034.335   123814003.662       -2893.017          27.153  
R04  21757550.661   116510798.008        -546.405          32.153  
R05  21694376.895   115969144.031        3234.949          31.001  
R10  22628728.957   120708775.110       -3991.500          26.156  
R11  20443858.611   109245817.971        -608.818          37.155  
R12  22090428.515   118003075.371        3142.312          37.117  
R20  20106474.278   107518391.726       -1576.422          29.703  
R21  20164097.086   107902339.490        2352.038          26.718  
> 2020  4 16 16 15 36.0003795  0 18
G05  25415768.430                       -3130.787          16.557  
G10  24308321.899   127741050.278        4069.135          34.068  
G13  25077718.257   131784277.349        2317.976          35.572  
G15  24625116.187   129405925.711        2809.924          34.287  
G16  20868011.876   109662031.836         881.172          34.620  
G18  20881129.295   109731084.898       -1419.370          38.207  
G20  21794206.285   114529376.688        2998.078          32.673  
G21  21034434.764   110536766.974        -727.983          36.220  
G26  21092390.642                       -1360.279          24.897  
G27  22486515.809   118167468.887        3296.831          37.922  
G29  23561651.308   123817212.129       -2893.312          27.814  
R04  21757702.656   116511665.935        -547.525          32.516  
R05  21693851.059   115966230.191        3234.391          29.420  
R10  22629577.070   120713086.758       -3992.414          25.863  
R11  20444044.782   109246747.678        -609.764          36.818  
R12  22089905.976   118000253.975        3141.213          37.289  
R20  20106803.749   107520289.012       -1577.066          29.615  
R21  20163685.471   107899953.245        2351.815          26.179  
> 2020  4 16 16 15 37.0003797  0 18
G05  25416419.279                       -3132.692          17.365  
G10  24307599.699   127737296.448        4069.077          34.142  
G13  25077334.223   131782274.779        2317.269          35.915  
G15  24624648.211   129403431.173        2809.620          34.235  
G16  20867901.852   109661466.118         880.384          34.717  
G18  20881460.266   109732819.483       -1419.685          38.176  
G20  21793685.545   114526694.040        2997.530          32.478  
G21  21034641.621   110537810.081        -728.096          35.888  
G26  21092721.313                       -1361.177          25.020  
G27  22485951.000   118164487.200        3296.684          38.108  
G29  23562271.579   123820420.993       -2894.026          28.084  
R04  21757887.928   116512534.952        -548.486          33.151  
R05  21693319.228   115963317.123        3233.490          30.172  
R10  22630372.119   120717398.655       -3992.563          26.559  
R11  20444215.364   109247678.322        -610.761          36.889  
R12  22089364.251   117997433.359        3140.307          37.900  
R20  20107161.102   107522186.823       -1577.351          29.808  
R21  20163336.812   107897922.531        2351.155          27.251  
> 2020  4 16 16 15 38.0003799  0 17
G10  24306891.889   127733542.699        4068.719          34.062  
G13  25076960.082   131780272.751        2316.772          36.261  
G15  24624164.945   129400937.011        2809.071          34.121  
G16  20867798.124   109660901.085         879.716          34.989  
G18  20881790.937   109734554.494       -1420.097          38.042  
G20  21793186.991   114524011.859        2997.264          33.083  
G21  21034835.586   110538853.596        -728.627          35.801  
G26  21093029.799                       -1361.751          25.015  
G27  22485384.093   118161505.825        3296.244          37.656  
G29  23562882.556   123823629.991       -2893.980          27.669  
R04  21758033.627   116513404.871        -549.320          32.772  
R05  21692770.308   115960404.778        3232.400          29.680  
R10  22631155.477   120721710.890       -3992.383          26.424  
R11  20444395.240   109248609.866        -611.462          36.835  
R12  22088846.210   117994613.446        3139.861          38.409  
R20  20107525.350   107524085.090       -1577.848          29.736  
R21  20162979.460   107896175.234        2350.789          28.120  
> 2020  4 16 16 15 39.0003802  0 19
G07  25566532.258                        2361.654          14.195  
G10  24306197.869   127729946.529        4068.827          33.853  
G13  25076605.128   131778428.523        2316.395          37.037  
G15  24623722.152   129398600.724        2808.519          34.535  
G16  20867711.484   109660494.177         879.240          34.893  
G18  20882149.789   109736447.490       -1420.755          37.776  
G20  21792698.629   114521487.656        2996.793          33.044  
G21  21035069.724   110540054.969        -729.008          35.658  
G26  21093368.265                       -1362.097          24.482  
G27  22484842.368   118158682.135        3296.060          37.652  
G29  23563515.418   123826996.641       -2894.213          27.650  
R03  24496781.331                       -3284.697          11.897  
R04  21758240.783   116514436.103        -550.207          33.172  
R05  21692248.969   115957653.210        3231.745          28.865  
R10  22631995.196   120726183.235       -3992.852          26.550  
R11  20444593.702   109249702.498        -612.486          36.959  
R12  22088338.961   117991954.259        3139.252          38.300  
R20  20107918.977   107526144.010       -1578.371          29.475  
R21  20162631.401   107894305.835        2350.181          29.080  
> 2020  4 16 16 15 40.0003804  0 19
G05  25418421.293                       -3133.152          17.870  
G10  24305494.256   127726192.979        4068.617          33.719  
G13  25076228.288   131776427.393        2315.831          36.724  
G15  24623249.679   129396107.275        2808.105          35.077  
G16  20867607.756   109659930.473         878.258          34.665  
G18  20882479.260   109738183.356       -1421.015          37.842  
G20  21792187.782   114518806.376        2996.213          33.008  
G21  21035266.688   110541099.163        -729.230          35.669  
G26  21093717.523                       -1362.819          25.234  
G27  22484285.653   118155701.176        3295.935          37.520  
G29  23564137.487   123830205.959       -2894.770          27.918  
R03  24497480.447                       -3286.463          11.838  
R04  21758381.986   116515307.722        -550.831          33.673  
R05  21691714.439   115954742.077        3231.028          28.585  
R10  22632826.520   120730495.994       -3993.192          27.520  
R11  20444760.087   109250635.926        -613.690          36.550  
R12  22087804.731   117989135.636        3138.603          38.017  
R20  20108266.437   107528042.999       -1578.452          29.235  
R21  20162251.564   107892276.403        2350.203          30.292  
> 2020  4 16 16 15 41.0003806  0 18
G05  25419076.340                       -3132.424          16.667  
G10  24304768.459   127722439.557        4068.495          33.888  
G13  25075850.550   131774426.689        2315.657          35.542  
G15  24622765.214   129393614.271        2808.163          34.891  
G16  20867486.939   109659367.457         877.951          34.369  
G18  20882811.730   109739919.746       -1421.344          38.049  
G20  21791688.328   114516125.566        2995.818          33.369  
G21  21035460.354   110542143.811        -729.678          35.619  
G26  21094017.615                       -1363.424          25.674  
G27  22483712.450   118152720.519        3295.597          37.833  
G29  23564735.273   123833415.467       -2894.438          28.078  
R04  21758572.654   116516180.453        -552.022          33.666  
R05  21691124.747   115951492.607        3230.959          27.150  
R10  22633635.960   120734808.986       -3992.909          28.164  
R11  20444941.462   109251570.300        -614.257          36.241  
R12  22087287.889   117986317.748        3137.996          38.127  
R20  20108646.274   107529942.475       -1578.878          29.232  
R21  20161873.226   107890247.509        2349.780          30.412  
> 2020  4 16 16 15 42.0003808  0 17
G10  24304055.253   127718685.987        4068.682          33.878  
G13  25075461.419   131772426.315        2315.221          35.019  
G15  24622293.641   129391121.418        2807.596          34.534  
G16  20867373.018   109658804.903         877.326          33.409  
G18  20883134.607   109741656.360       -1421.687          37.958  
G20  21791172.085   114513444.980        2995.357          33.382  
G21  21035662.114   110543188.564        -729.891          35.734  
G26  21094344.689                       -1363.550          26.071  
G27  22483148.540   118149739.853        3295.636          37.945  
G29  23565351.946   123836624.892       -2894.566          28.351  
R04  21758716.854   116517053.766        -552.552          33.624  
R05  21690596.812   115948582.659        3230.131          27.049  
R10  22634421.716   120739122.040       -3992.954          27.454  
R11  20445115.041   109252505.291        -614.941          36.587  
R12  22086763.552   117983500.341        3137.444          38.126  
R20  20108976.345   107531842.109       -1579.131          29.377  
R21  20161503.881   107888218.686        2349.276          30.818  
> 2020  4 16 16 15 43.0003811  0 17
G10  24303363.032   127715090.129        4068.281          33.635  
G13  25075117.258   131770583.868        2314.943          34.908  
G15  24621851.747   129388786.534        2807.378          34.129  
G16  20867291.775   109658400.592         876.450          33.035  
G18  20883492.559   109743550.955       -1422.162          37.665  
G20  21790686.721   114510922.434        2994.805          33.328  
G21  21035885.460   110544391.263        -730.076          35.526  
G26  21094691.549                       -1364.625          25.266  
G27  22482609.513   118146916.978        3295.622          37.960  
G29  23565987.806   123839992.121       -2894.698          27.842  
R04  21758927.608   116518088.509        -553.488          34.290  
R05  21690092.262   115945833.732        3229.157          26.937  
R10  22635282.720   120743595.330       -3993.508          28.420  
R11  20445315.603   109253601.494        -615.926          36.686  
R12  22086263.198   117980843.800        3136.713          38.396  
R20  20109361.579   107533902.461       -1579.344          29.847  
R21  20161166.615   107886350.774        2349.059          31.705  
> 2020  4 16 16 15 44.0003813  0 18
G10  24302653.423   127711336.926        4068.237          33.256  
G13  25074731.425   131768584.598        2314.035          36.006  
G15  24621376.875   129386294.629        2806.595          34.342  
G16  20867189.245   109657839.495         875.995          33.173  
G18  20883824.429   109745288.653       -1423.180          37.327  
G20  21790180.672   114508242.851        2994.395          33.647  
G21  21036083.023   110545436.965        -730.927          35.395  
G26  21094989.243   110854997.2871      -1365.732          25.264  
G27  22482044.405   118143937.010        3294.761          37.841  
G29  23566594.286   123843202.113       -2895.274          27.850  
R03  24500192.070                       -3288.491          10.163  
R04  21759071.808   116518963.750        -554.652          34.404  
R05  21689546.040   115942925.252        3228.306          27.067  
R10  22636068.476   120747909.046       -3994.061          27.879  
R11  20445490.082   109254538.529        -617.335          36.482  
R12  22085734.964   117978027.884        3135.624          38.249  
R20  20109730.024   107535803.169       -1580.538          29.706  
R21  20160765.193   107884323.013        2348.194          31.536  
> 2020  4 16 16 15 45.0003815  0 17
G10  24301933.921   127707583.911        4068.096          33.181  
G13  25074355.185   131766585.815        2313.516          35.452  
G15  24620902.904   129383803.090        2806.361          34.229  
G16  20867077.123   109657279.193         874.893          33.430  
G18  20884157.199   109747026.768       -1423.363          37.764  
G20  21789680.918   114505563.841        2994.123          34.012  
G21  21036287.781   110546483.036        -731.277          35.462  
G26  21095336.402   110856677.833       -1365.525          25.262  
G27  22481479.296   118140957.241        3294.719          37.864  
G29  23567204.664   123846412.209       -2894.993          27.699  
R04  21759253.182   116519839.973        -555.642          34.595  
R05  21689012.409   115940017.495        3228.027          26.275  
R10  22636881.813   120752223.093       -3994.368          27.980  
R11  20445675.653   109255476.573        -618.133          36.843  
R12  22085209.128   117975212.731        3135.114          38.026  
R20  20110087.076   107537704.184       -1580.633          30.141  
R21  20160388.953   107882295.728        2348.124          31.210  
> 2020  4 16 16 15 46.0003817  0 17
G10  24301236.904   127703830.871        4068.155          33.589  
G13  25073974.748   131764587.412        2313.158          35.390  
G15  24620413.942   129381311.957        2806.010          32.211  
G16  20866971.296   109656719.423         874.628          33.504  
G18  20884488.170   109748765.277       -1423.457          37.697  
G20  21789158.080   114502885.153        2993.680          33.906  
G21  21036492.539   110547529.358        -731.351          35.536  
G26  21095643.690   110858359.046       -1366.540          25.371  
G27  22480909.690   118137977.673        3294.433          37.758  
G29  23567809.645   123849622.446       -2895.231          26.950  
R04  21759404.278   116520716.944        -556.238          33.749  
R05  21688460.491   115937110.255        3227.620          27.749  
R10  22637692.152   120756537.241       -3994.622          27.837  
R11  20445842.937   109256415.372        -618.782          37.120  
R12  22084681.493   117972398.152        3134.593          38.100  
R20  20110439.033   107539605.560       -1580.927          30.247  
R21  20160004.919   107880268.854        2347.470          31.066  
> 2020  4 16 16 15 47.0003819  0 17
G10  24300522.798   127700078.041        4067.724          34.036  
G13  25073589.215   131762589.578        2312.396          35.626  
G15  24619960.956   129378821.254        2805.491          33.188  
G16  20866860.073   109656160.455         873.680          33.133  
G18  20884817.042   109750504.323       -1424.184          37.691  
G20  21788652.630   114500207.052        2992.786          33.804  
G21  21036682.308   110548576.206        -732.077          35.263  
G26  21095974.661   110860040.837       -1366.955          24.268  
G27  22480341.883   118134998.417        3294.238          37.826  
G29  23568402.934   123852832.987       -2895.577          26.820  
R04  21759585.053   116521594.986        -557.460          34.547  
R05  21687919.965   115934203.898        3226.425          28.021  
R10  22638509.086   120760851.760       -3994.715          28.157  
R11  20446019.815   109257355.229        -619.920          36.748  
R12  22084142.466   117969584.492        3133.397          37.639  
R20  20110804.480   107541507.468       -1581.569          30.241  
R21  20159640.072   107878242.436        2347.058          31.163  
> 2020  4 16 16 15 48.0003822  0 17
G10  24299822.783   127696483.040        4067.375          34.238  
G13  25073238.758   131760749.962        2312.069          35.459  
G15  24619507.370   129376488.579        2805.048          33.275  
G16  20866780.628   109655759.871         872.750          33.197  
G18  20885183.988   109752401.572       -1424.831          37.538  
G20  21788166.067   114497687.095        2992.378          33.941  
G21  21036908.052   110549781.122        -732.624          35.400  
G26  21096290.642                       -1368.701          23.033  
G27  22479804.055   118132177.135        3293.837          37.697  
G29  23569032.199   123856201.339       -2895.820          26.691  
R04  21759785.014   116522634.674        -558.942          34.269  
R05  21687408.520   115931458.525        3225.950          27.989  
R10  22639339.811   120765326.647       -3995.035          27.805  
R11  20446220.376   109258456.336        -621.040          36.898  
R12  22083644.811   117966931.698        3132.880          37.293  
R20  20111199.306   107543570.298       -1582.425          30.397  
R21  20159262.333   107876377.031        2346.592          30.758  
> 2020  4 16 16 15 49.0003824  0 18
G10  24299115.572   127692730.565        4067.500          33.692  
G13  25072864.017   131758753.254        2311.380          35.613  
G15  24619027.402   129373998.753        2804.787          32.117  
G16  20866683.795   109655202.370         872.227          33.125  
G18  20885515.858   109754141.649       -1425.228          37.817  
G20  21787657.618   114495009.998        2991.759          34.125  
G21  21037109.812   110550828.828        -732.807          35.171  
G26  21096592.233                       -1367.938          21.432  
G27  22479238.647   118129198.541        3293.587          38.021  
G29  23569655.767   123859412.366       -2896.280          26.750  
R03  24503613.301                       -3291.272           9.117  
R04  21759936.110   116523514.541        -559.283          33.876  
R05  21686833.518   115928553.627        3225.101          28.117  
R10  22640148.351   120769641.859       -3995.453          27.850  
R11  20446397.554   109259398.209        -622.063          37.058  
R12  22083123.472   117964119.493        3132.175          37.219  
R20  20111551.563   107545473.155       -1582.772          30.286  
R21  20158888.192   107874351.628        2346.462          30.987  
> 2020  4 16 16 15 50.0003826  0 18
G10  24298399.368   127688978.272        4067.365          33.746  
G13  25072487.178   131756757.104        2311.192          35.777  
G15  24618562.424   129371509.456        2804.449          34.010  
G16  20866576.769   109654645.654         871.578          33.184  
G18  20885854.024   109755882.264       -1425.691          38.140  
G20  21787159.663   114492333.412        2991.660          34.172  
G21  21037304.377   110551876.994        -733.242          35.041  
G26  21096902.219                       -1375.237          19.223  
G27  22478669.641   118126220.267        3293.222          38.255  
G29  23570256.851   123862623.554       -2896.015          26.231  
R03  24504287.535                       -3288.449          10.820  
R04  21760112.088   116524395.595        -560.480          33.810  
R05  21686285.497   115925649.351        3224.952          28.166  
R10  22640968.883   120773957.381       -3995.803          27.999  
R11  20446581.626   109260340.970        -622.750          37.458  
R12  22082590.741   117961308.061        3131.452          36.934  
R20  20111899.322   107547376.474       -1582.900          30.216  
R21  20158505.657   107872326.752        2345.707          30.514  
> 2020  4 16 16 15 51.0003828  0 18
G10  24297687.961   127685226.078        4067.382          33.582  
G13  25072098.048   131754761.481        2310.325          35.454  
G15  24618082.456   129369020.460        2804.163          34.746  
G16  20866478.138   109654089.613         870.664          33.614  
G18  20886182.297   109757623.348       -1426.144          38.239  
G20  21786654.813   114489657.360        2991.072          34.633  
G21  21037502.540   110552925.541        -733.684          34.909  
G26  21097229.292                       -1375.471          18.686  
G27  22478110.828   118123242.243        3292.944          38.325  
G29  23570892.711   123865835.039       -2896.432          26.546  
R03  24505007.037                       -3291.311          11.336  
R04  21760268.280   116525277.494        -561.507          33.479  
R05  21685732.080   115922745.961        3223.367          28.191  
R10  22641770.828   120778273.171       -3995.912          27.649  
R11  20446749.810   109261284.759        -623.561          37.230  
R12  22082067.603   117958497.283        3130.551          36.467  
R20  20112262.670   107549280.244       -1583.407          30.226  
R21  20158146.805   107870302.273        2345.269          30.640  
> 2020  4 16 16 15 52.0003831  0 17
G10  24297007.432   127681631.709        4067.146          33.211  
G13  25071757.783   131752923.896        2309.923          36.197  
G15  24617648.956   129366689.598        2803.487          34.870  
G16  20866407.087   109653691.891         870.395          33.672  
G18  20886546.845   109759522.568       -1426.685          38.433  
G20  21786164.952   114487139.387        2990.474          34.300  
G21  21037734.579   110554132.108        -734.116          35.168  
G27  22477568.803   118120422.128        3292.615          38.063  
G29  23571519.876   123869204.302       -2896.593          26.413  
R03  24505700.756                       -3288.953          12.084  
R04  21760472.438   116526320.983        -562.450          33.408  
R05  21685264.704   115920003.414        3223.053          28.425  
R10  22642600.654   120782749.295       -3996.426          28.052  
R11  20446950.371   109262389.796        -624.827          37.407  
R12  22081565.151   117955847.478        3129.993          36.600  
R20  20112647.304   107551344.862       -1583.949          30.372  
R21  20157786.755   107868438.792        2344.529          29.848  
> 2020  4 16 16 15 53.0003833  0 17
G10  24296283.733   127677879.823        4066.841          33.395  
G13  25071373.749   131750929.351        2309.372          35.975  
G15  24617175.584   129364201.563        2802.780          35.551  
G16  20866301.560   109653137.298         869.264          33.686  
G18  20886874.518   109761264.629       -1427.253          38.106  
G20  21785656.804   114484464.286        2989.885          34.377  
G21  21037938.738   110555181.490        -734.605          35.281  
G27  22477002.195   118117444.689        3292.315          38.132  
G29  23572148.541   123872416.163       -2896.809          27.124  
R03  24506361.499                       -3290.142          12.711  
R04  21760619.936   116527204.748        -563.139          33.098  
R05  21684726.576   115917101.341        3222.421          28.705  
R10  22643396.903   120787065.711       -3996.829          28.207  
R11  20447134.743   109263335.461        -625.677          37.712  
R12  22081048.308   117953038.246        3129.000          36.747  
R20  20112988.168   107553249.546       -1584.424          30.284  
R21  20157423.406   107866415.331        2344.043          29.392  
> 2020  4 16 16 15 54.0003835  0 18
G10  24295576.522   127674128.175        4066.973          33.536  
G13  25071000.208   131748935.290        2308.994          35.464  
G15  24616704.610   129361714.002        2802.543          35.166  
G16  20866201.429   109652583.552         868.421          33.236  
G18  20887207.587   109763007.297       -1427.802          38.267  
G20  21785155.251   114481789.761        2989.386          34.506  
G21  21038144.695   110556231.384        -734.973          35.205  
G26  21098227.001                       -1375.074          18.494  
G27  22476434.988   118114467.649        3291.893          38.401  
G29  23572765.814   123875628.330       -2897.075          27.690  
R03  24507050.422                       -3293.144          13.195  
R04  21760771.931   116528089.599        -564.226          33.243  
R05  21684174.958   115914200.111        3221.164          29.169  
R10  22644208.740   120791382.515       -3997.024          28.328  
R11  20447331.107   109264282.230        -626.660          37.930  
R12  22080521.273   117950229.769        3128.507          36.699  
R20  20113338.026   107555154.807       -1584.922          30.177  
R21  20157015.089   107864392.442        2343.382          28.792  
> 2020  4 16 16 15 55.0003837  0 18
G05  25428368.707                       -3135.397          18.333  
G10  24294854.622   127670376.689        4066.672          33.337  
G13  25070615.274   131746941.796        2308.542          35.438  
G15  24616242.630   129359226.822        2802.260          35.731  
G16  20866098.001   109652030.394         868.088          33.498  
G18  20887536.160   109764750.377       -1428.226          38.259  
G20  21784638.409   114479115.672        2989.233          34.538  
G21  21038341.060   110557281.578        -735.048          35.514  
G26  21098563.668                       -1374.975          18.578  
G27  22475868.380   118111490.768        3291.962          38.245  
G29  23573379.189   123878840.670       -2897.333          28.235  
R04  21760946.410   116528975.313        -564.900          33.657  
R05  21683630.535   115911299.431        3220.977          29.425  
R10  22645042.164   120795699.570       -3997.440          28.737  
R11  20447497.492   109265229.828        -627.690          38.154  
R12  22079994.238   117947421.974        3127.835          37.043  
R20  20113707.670   107557060.426       -1585.085          30.160  
R21  20156676.323   107862369.821        2343.466          29.277  
> 2020  4 16 16 15 56.0003840  0 18
G05  25429057.330                       -3136.014          18.809  
G10  24294168.697   127666782.764        4066.531          32.995  
G13  25070270.513   131745106.246        2307.969          35.849  
G15  24615801.935   129356897.522        2801.899          35.778  
G16  20866014.359   109651635.482         867.253          33.589  
G18  20887900.108   109766651.438       -1428.510          37.940  
G20  21784165.036   114476599.627        2988.385          34.568  
G21  21038571.900   110558489.703        -735.440          35.820  
G26  21098928.816                       -1373.879          20.607  
G27  22475330.552   118108671.728        3291.540          38.447  
G29  23574020.145   123882210.656       -2897.123          28.022  
R04  21761149.969   116530022.470        -566.079          34.485  
R05  21683131.680   115908559.704        3219.959          29.564  
R10  22645898.970   120800176.769       -3997.325          29.074  
R11  20447707.047   109266338.553        -628.477          38.280  
R12  22079509.474   117944775.013        3127.065          37.010  
R20  20114080.612   107559126.791       -1585.681          29.807  
R21  20156321.069   107860508.179        2342.620          30.034  
> 2020  4 16 16 15 57.0003842  0 18
G05  25429721.070                       -3137.981          20.282  
G10  24293459.388   127663031.288        4066.823          33.325  
G13  25069885.879   131743113.577        2307.875          36.322  
G15  24615322.867   129354411.048        2801.755          36.105  
G16  20865915.427   109651083.570         867.034          33.575  
G18  20888224.483   109768395.310       -1428.663          37.627  
G20  21783646.395   114473926.322        2988.499          34.390  
G21  21038778.757   110559540.588        -735.499          35.826  
G26  21099275.076                       -1374.586          21.463  
G27  22474763.345   118105695.278        3291.636          38.377  
G29  23574624.227   123885423.265       -2897.367          27.670  
R04  21761318.153   116530909.951        -566.729          34.933  
R05  21682580.662   115905660.250        3220.057          30.419  
R10  22646667.638   120804494.263       -3997.594          28.539  
R11  20447874.931   109267287.991        -629.245          38.360  
R12  22078977.642   117941968.549        3126.882          37.263  
R20  20114456.252   107561033.146       -1585.660          29.619  
R21  20155964.316   107858486.369        2342.831          30.753  
> 2020  4 16 16 15 58.0003844  0 18
G05  25430372.819                       -3138.366          19.884  
G10  24292739.886   127659279.837        4066.901          33.464  
G13  25069514.137   131741121.230        2307.433          36.338  
G15  24614856.689   129351924.767        2801.512          35.267  
G16  20865807.502   109650532.249         866.480          33.610  
G18  20888557.553   109770139.499       -1429.113          37.615  
G20  21783137.648   114471253.334        2988.359          34.691  
G21  21038979.617   110560591.720        -735.977          36.142  
G26  21099589.858                       -1375.256          22.025  
G27  22474197.337   118102718.897        3291.636          38.480  
G29  23575228.009   123888635.821       -2897.221          28.184  
R04  21761481.540   116531798.139        -567.215          35.368  
R05  21682050.329   115902761.296        3219.680          30.616  
R10  22647495.365   120808811.856       -3997.588          29.606  
R11  20448070.395   109268238.088        -629.761          38.607  
R12  22078446.410   117939162.557        3126.210          37.175  
R20  20114801.613   107562939.753       -1585.828          29.656  
R21  20155562.594   107856464.841        2342.716          30.863  
> 2020  4 16 16 15 59.0003846  0 18
G05  25431049.451                       -3138.675          21.514  
G10  24292026.080   127655528.477        4066.484          33.811  
G13  25069130.402   131739129.350        2306.691          36.414  
G15  24614384.516   129349438.881        2800.830          35.193  
G16  20865701.975   109649981.527         865.660          33.307  
G18  20888888.523   109771884.135       -1429.927          37.505  
G20  21782641.491   114468580.818        2987.459          34.450  
G21  21039177.481   110561643.167        -736.669          36.164  
G26  21099895.346                       -1374.969          22.000  
G27  22473627.431   118099742.796        3290.943          38.718  
G29  23575853.976   123891848.546       -2897.644          28.448  
R04  21761642.229   116532687.209        -568.489          34.742  
R05  21681511.602   115899863.074        3218.233          31.543  
R10  22648307.503   120813129.722       -3998.414          29.755  
R11  20448246.074   109269189.118        -631.078          38.639  
R12  22077923.572   117936357.271        3124.945          37.309  
R20  20115158.665   107564846.740       -1586.598          29.435  
R21  20155173.764   107854443.791        2341.570          30.666  
> 2020  4 16 16 16  0.0003848  0 19
G05  25431669.721                       -3138.673          21.362  
G07  25558471.139                        2350.781          12.336  
G10  24291317.371   127651777.194        4066.210          33.665  
G13  25068743.370   131737137.930        2306.315          36.373  
G15  24613912.043   129346953.328        2800.434          35.478  
G16  20865598.547   109649431.492         864.885          33.632  
G18  20889221.893   109773629.158       -1430.201          37.573  
G20  21782136.940   114465908.711        2986.926          35.296  
G21  21039384.337   110562694.953        -736.793          36.027  
G26  21100219.722                       -1370.509          21.184  
G27  22473066.520   118096766.868        3290.874          38.530  
G29  23576454.160   123895061.440       -2897.840          28.586  
R04  21761812.511   116533577.161        -569.073          35.631  
R05  21680959.084   115896965.482        3217.894          31.980  
R10  22649115.144   120817447.739       -3998.086          29.901  
R11  20448425.949   109270141.037        -631.903          38.753  
R12  22077410.627   117933552.670        3124.536          37.362  
R20  20115517.517   107566754.125       -1587.085          29.453  
R21  20154799.922   107852423.117        2341.246          30.837  
> 2020  4 16 16 16  1.0003851  0 19
G05  25432367.039                       -3135.887          20.091  
G07  25558123.979                        2350.632          12.056  
G10  24290633.544   127648183.464        4066.188          33.637  
G13  25068405.504   131735304.464        2305.825          36.286  
G15  24613471.648   129344625.687        2800.177          35.900  
G16  20865529.894   109649039.651         863.962          33.928  
G18  20889582.243   109775532.152       -1430.667          37.267  
G20  21781661.769   114463394.568        2986.805          35.459  
G21  21039603.486   110563904.609        -737.037          36.089  
G26  21100578.573                       -1373.060          20.745  
G27  22472531.390   118093948.706        3290.707          38.684  
G29  23577101.412   123898432.024       -2898.064          29.202  
R04  21762008.875   116534628.521        -570.109          35.912  
R05  21680446.439   115894228.832        3216.905          32.173  
R10  22649960.858   120821925.958       -3998.436          29.804  
R11  20448636.404   109271253.996        -632.795          38.736  
R12  22076906.076   117930908.868        3123.738          37.802  
R20  20115903.050   107568822.190       -1587.378          29.162  
R21  20154474.048   107850563.233        2340.959          31.371  
> 2020  4 16 16 16  2.0003853  0 18
G05  25433025.982                       -3136.593          18.965  
G10  24289916.441   127644432.204        4066.222          33.785  
G13  25068019.671   131733313.819        2305.606          35.914  
G15  24613007.270   129342140.756        2799.696          37.177  
G16  20865426.466   109648490.797         863.587          34.237  
G18  20889920.409   109777277.902       -1430.860          37.372  
G20  21781143.428   114460723.240        2986.115          35.017  
G21  21039800.749   110564956.993        -737.521          35.807  
G26  21100904.448                       -1379.019          20.982  
G27  22471966.881   118090973.117        3290.633          38.686  
G29  23577711.190   123901645.017       -2897.755          30.081  
R04  21762180.656   116535520.096        -571.174          35.832  
R05  21679908.612   115891332.359        3216.613          32.183  
R10  22650754.409   120826244.323       -3998.508          29.833  
R11  20448809.384   109272207.656        -633.827          38.329  
R12  22076387.735   117928105.431        3123.418          38.186  
R20  20116274.193   107570730.198       -1587.497          29.059  
R21  20154081.020   107848543.220        2340.522          31.375  
> 2020  4 16 16 16  3.0003855  0 19
G05  25433691.522                       -3139.254          19.241  
G07  25557355.311                        2351.429          13.355  
G10  24289202.035   127640681.034        4066.138          33.434  
G13  25067640.733   131731323.694        2304.828          35.315  
G15  24612529.101   129339656.162        2799.228          36.639  
G16  20865329.333   109647942.585         862.828          34.380  
G18  20890250.780   109779024.096       -1431.509          37.404  
G20  21780635.280   114458052.263        2985.671          35.007  
G21  21040008.205   110566009.691        -737.855          35.769  
G26  21101203.940                       -1375.890          19.473  
G27  22471401.772   118087997.760        3290.281          39.127  
G29  23578329.062   123904858.258       -2898.479          30.083  
R04  21762341.944   116536412.603        -572.012          35.224  
R05  21679391.170   115888769.567        3215.665          32.987  
R10  22651559.052   120830562.936       -3998.814          30.383  
R11  20448985.362   109273162.093        -634.531          37.943  
R12  22075852.905   117925302.727        3122.532          38.388  
R20  20116624.051   107572638.621       -1588.138          29.189  
R21  20153705.380   107846523.632        2340.303          31.404  
> 2020  4 16 16 16  4.0003857  0 18
G05  25434347.468                       -3138.523          19.370  
G10  24288485.531   127636929.976        4066.156          33.234  
G13  25067256.999   131729333.948        2304.806          34.850  
G15  24612061.724   129337171.953        2799.331          36.402  
G16  20865213.613   109647395.054         862.320          34.559  
G18  20890579.053   109780770.737       -1431.791          37.554  
G20  21780131.928   114455381.763        2985.301          35.662  
G21  21040210.266   110567062.769        -737.989          36.151  
G26  21101487.244                       -1376.458          17.391  
G27  22470837.563   118085022.650        3290.185          39.083  
G29  23578932.844   123908071.645       -2898.515          29.947  
R04  21762503.233   116537305.922        -572.449          34.590  
R05  21678846.447   115885874.357        3215.598          34.674  
R10  22652396.672   120834881.835       -3998.913          30.892  
R11  20449155.644   109274117.496        -635.370          37.628  
R12  22075339.960   117922500.719        3122.082          38.306  
R20  20116966.114   107574547.468       -1588.445          29.439  
R21  20153333.937   107844504.491        2339.696          31.689  
> 2020  4 16 16 16  5.0003860  0 17
G05  25435027.997                       -3139.538          19.335  
G10  24287805.002   127633336.532        4065.690          33.413  
G13  25066918.234   131727502.221        2304.054          34.483  
G15  24611611.136   129334845.638        2798.763          35.848  
G16  20865148.558   109647005.749         861.462          34.859  
G18  20890942.102   109782675.319       -1432.430          37.293  
G20  21779653.759   114452869.245        2984.767          35.846  
G21  21040443.804   110568273.735        -738.516          36.082  
G26  21101876.675                       -1376.660          19.144  
G27  22470297.337   118082205.253        3289.704          39.040  
R04  21762698.397   116538360.683        -573.848          33.888  
R05  21678332.303   115883140.075        3214.459          33.752  
R10  22653222.900   120839360.856       -3999.555          31.093  
R11  20449377.191   109275233.919        -636.391          37.446  
R12  22074843.204   117919859.496        3121.295          38.444  
R20  20117368.436   107576616.963       -1588.652          29.702  
R21  20152978.383   107842646.080        2339.187          30.732  
> 2020  4 16 16 16  6.0003862  0 18
G05  25435690.838                       -3139.256          19.917  
G10  24287073.809   127629585.625        4065.909          32.506  
G13  25066542.294   131725513.448        2303.524          34.751  
G15  24611135.665   129332362.185        2798.295          35.834  
G16  20865032.239   109646459.470         861.056          35.161  
G18  20891278.169   109784422.835       -1432.705          37.312  
G20  21779148.010   114450199.648        2984.417          36.431  
G21  21040637.770   110569327.530        -738.898          35.862  
G26  21102211.543                       -1377.012          21.174  
G27  22469731.628   118079230.580        3289.466          39.075  
G29  23580197.969   123914656.3441      -2898.736          32.139  
R04  21762862.384   116539255.855        -574.457          34.312  
R05  21677771.091   115880246.272        3213.809          33.141  
R10  22654051.826   120843680.211       -3999.756          31.517  
R11  20449534.882   109276191.113        -637.167          36.819  
R12  22074303.877   117917058.825        3120.580          37.922  
R20  20117714.096   107578526.636       -1589.225          29.743  
R21  20152579.659   107840627.771        2338.794          30.174  
> 2020  4 16 16 16  7.0003864  0 18
G05  25436353.979                       -3138.592          19.448  
G10  24286371.095   127625834.885        4065.771          32.382  
G13  25066157.360   131723525.240        2303.048          35.155  
G15  24610659.595   129329879.165        2798.003          36.124  
G16  20864936.005   109645914.041         860.046          35.024  
G18  20891618.434   109786170.843       -1433.167          37.798  
G20  21778641.960   114447530.553        2983.971          36.887  
G21  21040842.228   110570381.750        -739.281          35.880  
G26  21102524.526                       -1379.397          21.542  
G27  22469168.618   118076256.241        3289.159          38.841  
G29  23580812.243   123917870.279       -2898.912          32.849  
R04  21763025.471   116540151.996        -575.656          33.648  
R05  21677251.551   115877353.162        3213.197          33.298  
R10  22654852.872   120847999.901       -4000.117          31.563  
R11  20449714.457   109277149.371        -638.541          36.747  
R12  22073782.838   117914258.895        3119.857          38.153  
R20  20118074.747   107580436.726       -1589.503          29.542  
R21  20152212.114   107838609.988        2338.461          29.485  
> 2020  4 16 16 16  8.0003866  0 18
G05  25437010.224                       -3139.383          18.466  
G10  24285650.094   127622084.311        4065.850          32.520  
G13  25065782.620   131721537.518        2302.762          35.133  
G15  24610180.527   129327396.595        2797.797          35.913  
G16  20864816.988   109645369.249         859.691          34.269  
G18  20891943.109   109787919.335       -1433.683          37.456  
G20  21778126.017   114444861.969        2983.414          36.978  
G21  21041037.993   110571436.420        -739.921          35.803  
G26  21102848.302                       -1380.753          21.305  
G27  22468594.516   118073282.154        3289.117          38.286  
G29  23581427.418   123921084.394       -2899.149          34.095  
R04  21763193.954   116541049.054        -576.320          33.477  
R05  21676688.841   115874460.812        3212.894          33.004  
R10  22655666.508   120852319.832       -4000.170          31.763  
R11  20449913.220   109278108.422        -639.043          36.701  
R12  22073267.795   117911459.639        3119.182          38.620  
R20  20118438.695   107582347.283       -1590.162          29.410  
R21  20151844.568   107836592.653        2338.299          29.084  
> 2020  4 16 16 16  9.0003869  0 18
G05  25437687.455                       -3139.566          17.055  
G10  24284974.662   127618491.486        4065.442          32.350  
G13  25065438.758   131719707.879        2302.095          35.428  
G15  24609741.630   129325072.038        2797.229          36.346  
G16  20864752.832   109644982.841         858.760          34.578  
G18  20892302.260   109789825.906       -1434.104          37.432  
G20  21777652.045   114442351.464        2982.959          37.269  
G21  21041273.929   110572649.019        -740.009          35.742  
G26  21103210.751                       -1382.599          21.745  
G27  22468064.183   118070465.932        3288.926          38.158  
G29  23582066.575   123924456.306       -2899.152          34.780  
R04  21763375.329   116542107.703        -577.385          33.264  
R05  21676189.986   115871729.453        3212.115          33.367  
R10  22656515.221   120856800.039       -4000.308          31.790  
R11  20450105.087   109279228.708        -639.868          36.369  
R12  22072768.640   117908821.386        3118.565          39.143  
R20  20118826.626   107584418.580       -1590.351          29.374  
R21  20151496.209   107834736.234        2337.764          29.334  
> 2020  4 16 16 16 10.0003871  0 18
G05  25438361.089                       -3140.947          16.865  
G10  24284254.261   127614741.272        4065.536          32.280  
G13  25065059.520   131717721.332        2301.537          35.769  
G15  24609270.656   129322590.382        2796.677          36.446  
G16  20864650.303   109644439.582         858.132          34.748  
G18  20892644.323   109791575.459       -1434.579          37.679  
G20  21777143.897   114439683.912        2982.463          37.643  
G21  21041475.989   110573704.552        -740.530          35.778  
G26  21103548.318                       -1380.311          22.709  
G27  22467501.772   118067492.522        3288.534          38.580  
G29  23582667.059   123927670.923       -2899.538          34.279  
R04  21763570.793   116543006.747        -578.394          34.313  
R05  21675632.672   115868838.586        3211.210          32.674  
R10  22657308.172   120861120.701       -4000.990          32.066  
R11  20450284.962   109280189.854        -640.946          36.037  
R12  22072256.895   117906023.807        3117.781          39.351  
R20  20119165.392   107586330.165       -1591.264          29.164  
R21  20151135.559   107832719.864        2337.107          29.426  
> 2020  4 16 16 16 11.0003873  0 18
G05  25439018.834                       -3140.668          16.155  
G10  24283553.046   127610991.108        4065.418          32.628  
G13  25064687.478   131715735.161        2301.205          36.154  
G15  24608799.083   129320109.120        2795.949          36.847  
G16  20864541.778   109643896.962         857.410          34.829  
G18  20892974.095   109793325.390       -1435.068          37.560  
G20  21776639.946   114437016.787        2981.903          37.738  
G21  21041670.555   110574760.412        -740.855          35.546  
G26  21103857.703                       -1380.994          21.865  
G27  22466929.768   118064519.299        3288.169          38.643  
G29  23583283.133   123930885.728       -2900.008          34.353  
R04  21763729.084   116543906.643        -579.104          34.070  
R05  21675099.041   115865948.290        3210.366          32.916  
R10  22658123.907   120865441.545       -4001.273          32.017  
R11  20450469.934   109281151.832        -642.228          36.140  
R12  22071739.753   117903226.809        3116.971          39.453  
R20  20119525.143   107588241.994       -1591.434          29.599  
R21  20150755.722   107830703.886        2336.532          29.887  
> 2020  4 16 16 16 12.0003875  0 18
G05  25439658.891                       -3141.894          15.002  
G10  24282820.653   127607240.880        4065.208          31.242  
G13  25064300.146   131713749.344        2300.351          35.351  
G15  24608328.109   129317627.958        2795.998          36.424  
G16  20864446.444   109643354.873         856.708          34.635  
G18  20893309.863   109795075.602       -1435.333          37.572  
G20  21776129.399   114434349.901        2981.843          38.031  
G21  21041882.208   110575816.457        -741.166          35.903  
G26  21104172.186                       -1383.142          22.338  
G27  22466367.957   118061546.106        3288.225          38.382  
G29  23583894.410   123934100.440       -2899.902          34.390  
R04  21763882.278   116544807.275        -580.032          33.833  
R05  21674569.008   115863058.460        3210.040          32.787  
R10  22658913.860   120869762.455       -4001.414          31.813  
R11  20450655.506   109282114.651        -642.852          36.446  
R12  22071203.124   117900430.304        3116.426          39.506  
R20  20119898.684   107590154.071       -1591.574          29.399  
R21  20150369.589   107828688.224        2335.940          30.030  
> 2020  4 16 16 16 13.0003877  0 18
G05  25440312.738                       -3139.508          14.473  
G10  24282116.441   127603490.751        4065.287          32.427  
G13  25063919.410   131711763.879        2300.540          35.233  
G15  24607842.445   129315147.213        2796.056          36.081  
G16  20864334.022   109642813.380         856.676          33.847  
G18  20893644.731   109796826.218       -1435.640          37.515  
G20  21775623.050   114431683.472        2981.537          38.322  
G21  21042073.775   110576872.825        -741.347          35.606  
G26  21104502.257                       -1381.988          22.278  
G27  22465802.249   118058573.166        3287.923          37.985  
G29  23584505.087   123937315.267       -2899.709          34.021  
R04  21764069.348   116545708.832        -580.814          33.953  
R05  21674019.189   115860169.285        3209.378          32.873  
R10  22659732.893   120874083.580       -4001.421          31.999  
R11  20450827.287   109283078.263        -643.650          36.122  
R12  22070688.380   117897634.405        3115.903          39.538  
R20  20120246.743   107592066.577       -1592.063          29.386  
R21  20149999.945   107826672.807        2336.322          30.766  
> 2020  4 16 16 16 14.0003880  0 18
G05  25440989.669                       -3140.063          15.552  
G10  24281430.216   127599898.281        4065.335          31.887  
G13  25063577.946   131709936.486        2299.848          36.019  
G15  24607402.350   129312824.531        2794.856          35.914  
G16  20864265.969   109642430.219         855.538          34.309  
G18  20893995.788   109798734.906       -1436.312          37.102  
G20  21775151.476   114429175.106        2980.764          38.427  
G21  21042302.217   110578087.188        -742.003          35.790  
G26  21104831.429                       -1384.333          22.655  
G27  22465270.717   118055758.047        3287.601          38.177  
G29  23585150.240   123940687.909       -2899.958          34.254  
R04  21764280.102   116546771.779        -581.718          34.373  
R05  21673522.133   115857441.066        3208.708          33.407  
R10  22660566.616   120878564.993       -4001.833          31.542  
R11  20451046.735   109284202.998        -644.373          36.204  
R12  22070188.926   117894999.501        3115.037          39.464  
R20  20120649.065   107594139.834       -1592.679          29.601  
R21  20149650.088   107824818.387        2335.441          31.146  
> 2020  4 16 16 16 15.0003882  0 19
G05  25441646.515                       -3142.277          14.451  
G10  24280721.206   127596148.328        4065.322          32.330  
G13  25063195.711   131707951.999        2299.404          34.098  
G15  24606931.376   129310344.443        2795.151          35.763  
G16  20864156.845   109641890.051         855.124          33.880  
G18  20894334.553   109800486.419       -1436.783          37.465  
G20  21774644.827   114426509.544        2980.475          38.644  
G21  21042506.376   110579144.262        -742.151          36.029  
G26  21105173.193                       -1382.944          23.659  
G27  22464700.212   118052785.523        3287.586          38.305  
G29  23585763.016   123943903.084       -2899.993          33.967  
R03  24521408.982                       -3299.760          14.194  
R04  21764433.896   116547675.023        -582.653          34.066  
R05  21672991.800   115854553.222        3208.261          32.930  
R10  22661385.649   120882886.573       -4001.659          31.664  
R11  20451221.514   109285168.431        -645.589          36.178  
R12  22069664.289   117892205.031        3114.484          39.154  
R20  20120992.027   107596053.067       -1592.820          28.927  
R21  20149289.137   107822803.860        2335.258          31.172  
> 2020  4 16 16 16 16.0003884  0 19
G05  25442301.861                       -3140.879          15.563  
G10  24280005.002   127592398.393        4064.899          32.860  
G13  25062817.672   131705967.953        2298.784          32.444  
G15  24606460.702   129307864.740        2794.474          36.024  
G16  20864051.917   109641350.506         854.339          33.564  
G18  20894666.723   109802238.242       -1437.029          37.551  
G20  21774140.876   114423844.346        2979.972          38.847  
G21  21042696.145   110580201.635        -742.577          35.813  
G26  21105498.767                       -1382.691          23.245  
G27  22464139.600   118049813.188        3287.094          38.280  
G29  23586377.591   123947118.321       -2900.176          34.239  
R03  24522059.232                       -3300.747          14.157  
R04  21764609.574   116548579.111        -583.835          34.206  
R05  21672428.490   115851665.971        3207.178          33.524  
R10  22662187.594   120887208.378       -4002.163          32.479  
R11  20451407.985   109286134.674        -646.352          36.684  
R12  22069136.355   117889411.122        3113.926          38.759  
R20  20121362.571   107597966.620       -1592.888          29.676  
R21  20148910.799   107820789.677        2334.999          31.012  
> 2020  4 16 16 16 17.0003886  0 20
G05  25442955.109                       -3141.085          14.987  
G07  25552053.481                        2340.627          21.842  
G10  24279285.500   127588648.596        4065.078          31.987  
G13  25062448.328   131703984.352        2298.688          31.837  
G15  24605990.627   129305385.455        2794.350          36.461  
G16  20863949.089   109640811.739         853.174          33.336  
G18  20895002.491   109803990.619       -1437.767          37.335  
G20  21773633.927   114421179.706        2979.379          38.882  
G21  21042901.502   110581259.434        -743.114          35.200  
G26  21105799.759                       -1385.475          23.508  
G27  22463568.795   118046841.159        3286.849          38.041  
G29  23586980.773   123950333.834       -2900.186          34.652  
R03  24522700.488                       -3301.324          13.761  
R04  21764787.351   116549484.160        -584.727          35.376  
R05  21671868.178   115848779.399        3206.354          33.181  
R10  22662996.434   120891530.560       -4002.470          31.994  
R11  20451580.366   109287101.917        -647.395          36.659  
R12  22068623.710   117886618.046        3113.076          39.241  
R20  20121709.430   107599880.728       -1593.514          29.979  
R21  20148520.769   107818776.101        2334.087          31.584  
> 2020  4 16 16 16 18.0003889  0 20
G05  25443662.919                       -3142.216          18.282  
G07  25551723.110                        2343.750          23.002  
G10  24278603.173   127585056.535        4064.445          31.553  
G13  25062093.074   131702158.942        2297.894          31.274  
G15  24605549.632   129303064.146        2793.970          35.895  
G16  20863877.738   109640431.130         852.887          33.005  
G18  20895367.338   109805901.018       -1437.982          37.372  
G20  21773148.563   114418672.988        2979.201          38.773  
G21  21043135.640   110582475.152        -742.999          35.826  
G26  21106167.604                       -1387.076          23.567  
G27  22463036.963   118044026.944        3286.663          38.092  
G29  23587631.622   123953707.100       -2900.476          35.068  
R03  24523415.793                       -3300.471          14.044  
R04  21764998.405   116550550.686        -585.475          35.289  
R05  21671382.514   115846053.745        3206.228          33.723  
R10  22663826.260   120896012.824       -4002.459          31.576  
R11  20451801.612   109288230.238        -647.961          36.864  
R12  22068113.163   117883985.839        3112.263          39.223  
R20  20122092.265   107601955.560       -1594.049          29.937  
R21  20148172.710   107816923.374        2333.533          31.906  
> 2020  4 16 16 16 19.0003891  0 19
G05  25444320.364                       -3142.726          17.144  
G07  25551333.680                        2343.252          23.992  
G10  24277889.667   127581306.910        4064.116          31.980  
G13  25061723.130   131700176.203        2297.552          30.429  
G15  24605075.061   129300585.612        2793.290          36.257  
G16  20863778.806   109639893.569         852.864          34.368  
G18  20895697.709   109807654.185       -1438.346          36.828  
G20  21772644.312   114416009.216        2978.576          38.983  
G21  21043335.602   110583533.634        -743.338          35.656  
G26  21106497.676                       -1383.549          24.148  
G27  22462472.154   118041055.350        3286.368          37.872  
G29  23588236.304   123956922.928       -2901.143          34.513  
R04  21765155.496   116551457.553        -586.358          34.837  
R05  21670829.997   115843168.506        3205.635          33.015  
R10  22664634.800   120900335.460       -4003.003          31.062  
R11  20451974.593   109289199.273        -649.300          36.523  
R12  22067602.617   117881194.118        3111.659          38.955  
R20  20122484.394   107603870.362       -1594.257          30.309  
R21  20147803.066   107814910.496        2333.273          32.754  
> 2020  4 16 16 16 20.0003893  0 19
G05  25444974.211                       -3142.606          15.615  
G07  25550964.335                        2340.225          23.848  
G10  24277183.655   127577557.668        4062.668          32.075  
G13  25061354.985   131698194.098        2297.007          30.317  
G15  24604607.085   129298107.473        2793.064          35.406  
G16  20863687.370   109639356.813         851.819          33.879  
G18  20896041.571   109809407.932       -1439.011          36.697  
G20  21772138.562   114413345.943        2978.167          38.743  
G21  21043540.360   110584592.560        -744.015          34.606  
G26  21106832.544                       -1385.772          25.250  
G27  22461904.647   118038084.028        3286.358          37.441  
G29  23588856.574   123960138.931       -2901.087          34.728  
R04  21765308.990   116552365.286        -586.896          34.288  
R05  21670296.066   115840283.968        3205.075          33.047  
R10  22665461.927   120904658.339       -4003.131          32.075  
R11  20452164.661   109290169.229        -650.307          36.587  
R12  22067073.183   117878403.081        3110.900          38.569  
R20  20122805.172   107605785.611       -1594.620          30.010  
R21  20147411.837   107812898.088        2333.183          32.800  
> 2020  4 16 16 16 21.0003895  0 19
G05  25445639.151                       -3143.877          14.078  
G07  25550558.117                        2341.944          23.776  
G10  24276474.946                        4065.644          33.553  
G13  25060966.454   131696212.437        2296.012          29.204  
G15  24604131.015   129295629.804        2792.687          36.818  
G16  20863584.541   109638820.793         850.865          33.905  
G18  20896371.043   109811162.093       -1439.289          37.458  
G20  21771628.016   114410683.057        2977.741          38.378  
G21  21043747.217   110585651.856        -744.417          34.146  
G26  21107144.628                       -1387.813          24.819  
G27  22461337.440   118035113.020        3286.153          37.158  
G29  23589459.757   123963355.116       -2901.160          34.682  
R04  21765490.664   116553273.905        -588.100          33.097  
R05  21669747.446   115837400.120        3203.913          33.781  
R10  22666251.281   120908981.586       -4003.934          31.408  
R11  20452340.639   109291140.121        -651.068          36.062  
R12  22066559.339   117875612.740        3110.218          38.672  
R20  20123170.619   107607701.308       -1594.983          30.187  
R21  20147051.486   107810886.237        2332.707          32.468  
> 2020  4 16 16 16 22.0003898  0 19
G07  25550179.479                        2340.584          23.886  
G10  24275790.220                        4064.278          34.115  
G13  25060627.988   131694388.850        2295.809          29.601  
G15  24603697.515   129293310.049        2792.304          36.738  
G16  20863508.094   109638442.940         850.104          33.945  
G18  20896728.996   109813074.230       -1439.632          37.113  
G20  21771151.945   114408178.222        2977.216          38.951  
G21  21043971.162   110586869.064        -744.770          34.343  
G26  21107503.779                       -1383.610          20.311  
G27  22460797.513   118032299.794        3285.675          37.739  
G29  23590104.011   123966729.023       -2901.267          34.135  
R03  24526183.476                       -3302.371          13.069  
R04  21765705.316   116554344.091        -588.883          33.107  
R05  21669238.099   115834677.229        3203.056          33.321  
R10  22667105.989   120913464.912       -4003.812          30.410  
R11  20452551.993   109292272.163        -651.756          35.919  
R12  22066059.285   117872983.301        3109.478          38.626  
R20  20123567.544   107609777.735       -1595.633          30.484  
R21  20146702.228   107809035.190        2331.916          32.894  
> 2020  4 16 16 16 23.0003900  0 19
G07  25549797.543                        2339.872          23.456  
G10  24275080.611                        4064.055          32.544  
G13  25060227.765   131692408.300        2295.310          28.091  
G15  24603225.641   129290833.227        2791.715          36.749  
G16  20863413.060   109637908.284         849.324          34.390  
G18  20897063.564   109814829.381       -1440.386          36.934  
G20  21770643.497   114405516.393        2976.710          38.885  
G21  21044183.115   110587929.180        -745.260          34.667  
G26  21107831.153                       -1385.232          19.561  
G27  22460231.505   118029329.312        3285.312          37.919  
G29  23590709.592   123969945.668       -2901.752          33.687  
R03  24526835.225                       -3303.778          12.411  
R04  21765881.294   116555254.702        -589.878          33.867  
R05  21668701.470   115831794.788        3202.440          33.894  
R10  22667924.722   120917788.611       -4003.990          30.190  
R11  20452745.959   109293244.959        -652.950          35.195  
R12  22065546.340   117870194.513        3108.634          38.884  
R20  20123915.004   107611694.362       -1596.536          30.208  
R21  20146340.978   107807024.138        2331.422          32.952  
> 2020  4 16 16 16 24.0003902  0 19
G07  25549420.404                        2337.721          22.985  
G10  24274369.803                        4063.938          32.578  
G13  25059846.429   131690428.237        2295.059          27.381  
G15  24602751.669   129288356.756        2791.601          37.096  
G16  20863307.833   109637374.325         848.604          34.318  
G18  20897399.931   109816584.991       -1440.667          36.917  
G20  21770135.649   114402855.029        2976.463          38.548  
G21  21044385.475   110588989.705        -745.880          34.646  
G26  21108155.528                       -1386.366          19.691  
G27  22459665.197   118026359.108        3285.157          37.677  
G29  23591328.063   123973162.444       -2901.825          33.809  
R03  24527490.871                       -3302.949          12.826  
R04  21766038.385   116556166.189        -590.843          33.626  
R05  21668157.347   115828913.007        3201.888          33.708  
R10  22668724.868   120922112.552       -4004.048          30.228  
R11  20452914.442   109294218.693        -653.904          35.831  
R12  22065020.504   117867406.395        3108.043          38.710  
R20  20124297.539   107613611.344       -1596.757          29.997  
R21  20145941.955   107805013.581        2331.245          32.946  
> 2020  4 16 16 16 25.0003904  0 18
G07  25549030.374                        2341.013          22.867  
G10  24273646.104                        4065.363          32.663  
G13  25059468.091   131688448.800        2294.139          25.844  
G15  24602286.092   129285880.827        2790.873          38.216  
G16  20863217.895   109636841.111         847.655          34.153  
G18  20897731.202   109818341.114       -1441.069          37.333  
G20  21769627.500   114400194.174        2975.530          37.658  
G21  21044581.839   110590050.620        -745.825          34.736  
G26  21108501.189   110925777.2911      -1389.080          24.579  
G27  22459099.189   118023389.186        3284.868          36.034  
G29  23591928.248   123976379.458       -2902.060          33.898  
R04  21766210.766   116557078.781        -592.443          34.183  
R05  21667630.611   115826032.130        3200.807          34.350  
R10  22669536.706   120926437.002       -4005.021          30.824  
R11  20453100.013   109295193.489        -654.463          37.010  
R12  22064494.368   117864619.043        3107.361          38.335  
R20  20124639.602   107615528.861       -1596.974          30.310  
R21  20145580.705   107803003.517        2330.508          32.071  
> 2020  4 16 16 16 26.0003906  0 18
G07  25548612.164                        2339.414          21.942  
G10  24272937.395   127555221.2991       4063.362          31.132  
G13  25059098.447   131686469.868        2294.065          28.462  
G15  24601808.223   129283405.322        2790.361          38.248  
G16  20863106.972   109636308.649         847.022          35.311  
G18  20898068.768   109820097.849       -1441.935          37.604  
G20  21769126.847   114397533.896        2975.161          38.605  
G21  21044787.797   110591112.089        -746.494          35.589  
G26  21108812.973   110927481.909       -1389.518          26.616  
G27  22458532.581   118020419.655        3284.537          36.701  
G29  23592538.326   123979596.771       -2902.293          34.498  
R04  21766390.042   116557992.224        -592.947          35.500  
R05  21667088.587   115823151.962        3199.883          33.124  
R10  22670352.142   120930761.643       -4005.232          31.566  
R11  20453278.090   109296169.250        -655.864          36.904  
R12  22063974.228   117861832.472        3106.374          37.864  
R20  20125002.351   107617446.886       -1597.461          30.586  
R21  20145193.673   107800994.041        2330.029          32.633  
> 2020  4 16 16 16 27.0003909  0 18
G07  25548292.885                        2338.432          21.270  
G10  24272259.265   127551630.503        4063.523          31.889  
G13  25058756.084   131684649.070        2293.017          32.599  
G15  24601374.423   129281087.943        2790.005          35.182  
G16  20863040.717   109635934.525         846.295          35.783  
G18  20898430.318   109822012.534       -1442.195          36.993  
G20  21768644.481   114395031.676        2974.527          38.040  
G21  21045009.943   110592331.460        -746.982          36.541  
G26  21109168.527   110929344.741       -1390.331          27.318  
G27  22457996.852   118017607.965        3284.179          36.859  
G29  23593174.485   123982971.844       -2902.752          34.484  
R04  21766596.299   116559067.303        -594.134          35.838  
R05  21666572.344   115820432.714        3199.577          31.548  
R10  22671193.959   120935246.534       -4005.147          31.706  
R11  20453508.631   109297306.213        -656.813          38.163  
R12  22063480.171   117859206.779        3105.997          37.567  
R20  20125377.991   107619525.712       -1598.091          29.759  
R21  20144864.501   107799145.418        2329.906          33.198  
> 2020  4 16 16 16 28.0003911  0 19
G05  25450292.229                       -3144.907          18.456  
G07  25547913.048                        2332.533          21.633  
G10  24271551.155   127547882.420        4063.127          32.878  
G13  25058383.442   131682671.255        2292.602          34.299  
G15  24600905.547   129278613.441        2789.437          36.577  
G16  20862933.991   109635403.629         845.584          35.827  
G18  20898764.886   109823770.314       -1442.828          37.132  
G20  21768140.230   114392372.484        2974.159          38.308  
G21  21045210.804   110593393.798        -747.504          36.367  
G26  21109500.397   110931050.745       -1391.148          27.386  
G27  22457438.639   118014639.143        3283.887          37.028  
G29  23593781.565   123986189.680       -2902.869          33.273  
R04  21766771.378   116559982.795        -594.863          36.240  
R05  21666060.299   115817554.040        3198.797          31.214  
R10  22672006.397   120939571.941       -4005.570          31.520  
R11  20453695.102   109298284.068        -657.807          38.848  
R12  22062957.033   117856421.862        3104.787          37.611  
R20  20125753.031   107621444.769       -1598.530          30.156  
R21  20144486.162   107797136.963        2329.185          33.638  
> 2020  4 16 16 16 29.0003913  0 19
G05  25450956.270                       -3144.196          18.292  
G07  25547503.831                        2333.173          20.781  
G10  24270835.250   127544134.521        4062.902          33.443  
G13  25058011.999   131680694.065        2292.153          35.355  
G15  24600433.374   129276139.343        2789.044          36.357  
G16  20862828.464   109634873.536         844.888          35.891  
G18  20899099.455   109825528.613       -1443.340          37.715  
G20  21767632.981   114389713.812        2973.646          37.586  
G21  21045423.956   110594456.625        -747.778          36.866  
G26  21109818.177   110932757.375       -1391.464          27.705  
G27  22456877.727   118011670.615        3283.607          36.789  
G29  23594401.236   123989407.761       -2902.912          32.634  
R04  21766930.568   116560899.238        -595.575          36.601  
R05  21665524.270   115814676.083        3198.419          32.163  
R10  22672799.647   120943897.693       -4006.036          30.716  
R11  20453865.983   109299262.824        -658.758          38.580  
R12  22062429.398   117853637.677        3104.360          37.339  
R20  20126091.797   107623364.284       -1598.905          30.312  
R21  20144109.024   107795129.014        2328.658          33.608  
> 2020  4 16 16 16 30.0003915  0 19
G05  25451604.421                       -3146.687          18.309  
G07  25547121.896                        2331.613          20.137  
G10  24270119.046   127540386.730        4062.941          33.261  
G13  25057627.965   131678717.364        2291.583          35.445  
G15  24599964.199   129273665.737        2788.414          36.475  
G16  20862725.935   109634344.105         844.159          35.606  
G18  20899432.824   109827287.329       -1443.644          37.986  
G20  21767129.930   114387055.646        2973.159          37.982  
G21  21045622.719   110595519.800        -748.337          36.833  
G26  21110139.255   110934464.624       -1392.247          27.873  
G27  22456306.323   118008702.313        3283.556          37.270  
G29  23595019.108   123992626.036       -2903.174          32.983  
R04  21767098.152   116561816.686        -596.696          36.932  
R05  21664984.943   115811798.830        3197.746          32.348  
R10  22673625.576   120948223.674       -4006.215          30.656  
R11  20454059.649   109300242.513        -659.600          38.383  
R12  22061913.455   117850854.218        3103.744          37.234  
R20  20126475.531   107625284.232       -1599.174          30.051  
R21  20143731.885   107793121.478        2328.525          33.248  
> 2020  4 16 16 16 31.0003918  0 19
G05  25452312.830                       -3145.178          19.315  
G07  25546771.438                        2335.709          18.587  
G10  24269431.622   127536796.556        4062.706          32.921  
G13  25057288.600   131676898.677        2291.068          35.859  
G15  24599517.209   129271350.022        2788.019          36.672  
G16  20862650.687   109633972.855         843.476          35.563  
G18  20899803.667   109829204.104       -1444.530          38.077  
G20  21766653.859   114384555.449        2972.628          38.057  
G21  21045861.653   110596740.904        -748.895          36.969  
G26  21110487.614   110936330.007       -1393.145          28.422  
G27  22455774.191   118005891.853        3282.958          37.296  
G29  23595663.662   123996002.016       -2903.510          33.542  
R04  21767312.203   116562895.537        -597.916          37.125  
R05  21664469.300   115809082.595        3196.728          32.730  
R10  22674448.506   120952709.833       -4006.476          30.843  
R11  20454257.212   109301383.413        -660.847          38.703  
R12  22061426.592   117848231.594        3102.771          36.753  
R20  20126863.762   107627364.930       -1600.015          30.132  
R21  20143375.431   107791274.862        2327.615          34.084  
> 2020  4 16 16 16 32.0003920  0 20
G05  25452991.261                       -3147.264          19.740  
G07  25546406.591                        2336.078          19.299  
G10  24268720.215   127533049.038        4062.548          32.911  
G13  25056913.260   131674922.966        2290.590          36.319  
G15  24599041.438   129268877.237        2787.735          36.924  
G16  20862557.152   109633444.842         842.753          35.433  
G18  20900135.237   109830963.796       -1444.896          37.924  
G20  21766146.011   114381898.224        2972.156          38.070  
G21  21046056.218   110597804.860        -749.115          36.889  
G26  21110815.886   110938038.438       -1393.837          28.282  
G27  22455215.078   118002924.128        3282.745          37.801  
G29  23596281.234   123999220.701       -2903.689          35.047  
R03  24533004.954                       -3307.833          13.407  
R04  21767458.802   116563814.849        -598.753          36.770  
R05  21663944.663   115806206.791        3195.982          32.013  
R10  22675256.447   120957036.379       -4006.952          31.228  
R11  20454449.679   109302365.030        -661.741          38.513  
R12  22060903.155   117845449.626        3101.820          37.016  
R20  20127219.616   107629285.738       -1600.297          30.309  
R21  20143014.781   107789268.311        2327.110          33.968  
> 2020  4 16 16 16 33.0003922  0 19
G05  25453645.408                       -3147.587          20.636  
G07  25546027.653                        2335.552          18.981  
G10  24268007.008   127529301.896        4062.218          33.549  
G13  25056544.815   131672948.050        2289.644          36.576  
G15  24598573.762   129266405.083        2786.908          37.488  
G16  20862453.424   109632917.745         841.858          35.143  
G18  20900476.101   109832724.168       -1445.666          37.853  
G20  21765642.959   114379241.738        2971.307          37.838  
G21  21046260.677   110598869.473        -749.897          36.657  
G26  21111137.863   110939747.744       -1395.055          27.520  
G27  22454641.275   117999956.933        3281.869          37.513  
G29  23596893.411   124002439.805       -2904.195          35.005  
R04  21767634.480   116564735.220        -599.955          36.675  
R05  21663383.152   115803331.875        3194.715          33.495  
R10  22676068.884   120961363.424       -4007.272          31.151  
R11  20454631.953   109303347.768        -663.058          38.397  
R12  22060372.822   117842668.536        3100.846          36.830  
R20  20127566.176   107631207.270       -1601.162          30.195  
R21  20142630.147   107787262.447        2326.238          33.903  
> 2020  4 16 16 16 34.0003924  0 19
G07  25545627.130                        2334.638          17.094  
G10  24267296.200   127525554.718        4062.291          33.200  
G13  25056158.982   131670973.477        2289.370          36.137  
G15  24598105.186   129263933.264        2786.661          37.594  
G16  20862352.394   109632391.258         841.275          35.730  
G18  20900806.773   109834484.919       -1445.824          38.014  
G20  21765134.211   114376585.587        2970.908          38.029  
G21  21046461.238   110599934.340        -749.882          36.802  
G26  21111472.432   110941457.492       -1394.957          27.481  
G27  22454082.462   117996989.847        3282.132          37.638  
G29  23597510.084   124005658.997       -2904.339          35.085  
R03  24534336.632                       -3307.519          11.885  
R04  21767807.460   116565656.476        -600.606          36.394  
R05  21662859.115   115800457.525        3194.587          33.379  
R10  22676892.414   120965690.693       -4007.613          31.986  
R11  20454808.831   109304331.438        -663.794          38.627  
R12  22059851.483   117839888.091        3100.371          36.866  
R20  20127929.225   107633129.109       -1601.186          30.318  
R21  20142256.906   107785256.928        2325.902          34.034  
> 2020  4 16 16 16 35.0003926  0 18
G07  25545224.509                        2332.459          17.164  
G10  24266582.395   127521807.887        4061.627          32.983  
G13  25055790.837   131668999.603        2288.581          35.232  
G15  24597630.914   129261461.889        2786.116          36.287  
G16  20862251.963   109631865.562         840.438          35.269  
G18  20901145.538   109836246.269       -1446.608          38.144  
G20  21764631.459   114373930.084        2970.268          37.921  
G21  21046673.191   110600999.705        -750.357          37.010  
G26  21111784.815   110943168.034       -1396.009          26.419  
G27  22453519.752   117994023.192        3281.489          37.428  
G29  23598123.159   124008878.472       -2904.668          35.086  
R04  21767978.942   116566578.774        -601.946          36.118  
R05  21662311.394   115797584.025        3193.652          33.203  
R10  22677697.357   120970018.322       -4008.184          31.572  
R11  20454995.002   109305316.129        -665.085          38.594  
R12  22059331.343   117837108.452        3099.432          36.341  
R20  20128294.072   107635051.515       -1602.167          30.410  
R21  20141879.467   107783251.936        2325.448          33.679  
> 2020  4 16 16 16 36.0003929  0 18
G07  25544864.458                        2330.843          18.115  
G10  24265903.964   127518218.779        4061.488          33.834  
G13  25055439.180   131667183.804        2288.012          35.944  
G15  24597195.316   129259148.646        2785.605          37.043  
G16  20862182.112   109631498.272         839.634          35.186  
G18  20901510.985   109838165.758       -1447.207          38.314  
G20  21764158.686   114371432.675        2969.696          38.371  
G21  21046894.138   110602223.166        -751.054          36.754  
G26  21112134.374   110945036.767       -1396.357          26.152  
G27  22452989.719   117991214.462        3281.217          38.076  
G29  23598767.113   124012255.766       -2904.561          35.208  
R04  21768193.293   116567662.711        -602.983          36.191  
R05  21661795.751   115794871.569        3192.920          32.975  
R10  22678541.273   120974506.218       -4008.249          31.903  
R11  20455204.856   109306462.005        -665.978          38.388  
R12  22058843.880   117834489.868        3098.576          36.867  
R20  20128679.305   107637134.698       -1602.361          30.500  
R21  20141540.102   107781407.930        2324.989          32.746  
> 2020  4 16 16 16 37.0003931  0 19
G05  25456322.555                       -3149.422          20.928  
G07  25544498.412                        2329.392          15.643  
G10  24265181.764   127514472.372        4061.349          33.718  
G13  25055072.534   131665211.103        2287.549          36.188  
G15  24596723.443   129256678.361        2785.241          38.318  
G16  20862081.082   109630974.142         838.860          35.344  
G18  20901839.558   109839928.188       -1447.559          38.247  
G20  21763655.035   114368778.258        2969.418          38.205  
G21  21047105.492   110603289.492        -751.345          36.616  
G26  21112458.149   110946748.716       -1397.189          25.405  
G27  22452416.216   117988248.501        3280.973          37.863  
G29  23599384.686   124015475.830       -2905.074          34.912  
R04  21768359.978   116568586.983        -603.602          36.458  
R05  21661263.020   115791999.685        3192.213          32.485  
R10  22679363.903   120978834.603       -4008.725          32.592  
R11  20455394.325   109307448.733        -666.683          38.518  
R12  22058336.032   117831711.806        3097.910          37.475  
R20  20129048.650   107639058.121       -1602.971          30.140  
R21  20141156.368   107779404.091        2324.539          33.142  
> 2020  4 16 16 16 38.0003933  0 19
G05  25456994.689                       -3146.309          21.552  
G07  25544120.973                        2329.127          12.960  
G10  24264464.061   127510726.058        4061.445          34.215  
G13  25054691.198   131663238.838        2287.189          35.619  
G15  24596257.865   129254208.430        2784.822          37.867  
G16  20861980.951   109630450.712         838.269          35.512  
G18  20902181.921   109841691.066       -1447.894          38.758  
G20  21763150.185   114366124.290        2968.995          38.071  
G21  21047308.751   110604356.230        -751.849          36.939  
G26  21112780.126   110948461.147       -1397.795          25.242  
G27  22451855.604   117985282.792        3280.765          38.046  
G29  23599985.470   124018696.031       -2905.154          34.661  
R04  21768536.256   116569512.214        -604.607          35.936  
R05  21660727.890   115789128.413        3191.615          33.405  
R10  22680173.043   120983163.179       -4008.787          32.611  
R11  20455573.301   109308436.324        -667.592          38.559  
R12  22057797.904   117828934.557        3097.455          37.612  
R20  20129388.015   107640981.931       -1603.501          30.232  
R21  20140778.329   107777400.667        2323.948          33.498  
> 2020  4 16 16 16 39.0003935  0 19
G05  25457650.036                       -3148.609          23.213  
G07  25543740.237                        2329.601          12.100  
G10  24263754.153   127506979.862        4061.237          34.007  
G13  25054312.261   131661267.032        2286.569          35.619  
G15  24595781.195   129251738.889        2784.391          37.821  
G16  20861882.619   109629927.957         837.400          35.578  
G18  20902516.189   109843454.451       -1448.580          38.613  
G20  21762645.034   114363470.807        2968.277          38.651  
G21  21047506.015   110605423.309        -752.281          36.609  
G26  21113094.609                       -1396.774          24.658  
G27  22451293.193   117982317.330        3280.257          38.116  
G29  23600602.143   124021916.417       -2905.526          35.065  
R04  21768723.326   116570438.316        -605.596          35.857  
R05  21660202.654   115786257.866        3190.626          32.599  
R10  22680987.879   120987492.054       -4009.254          32.424  
R11  20455760.672   109309424.841        -668.602          38.471  
R12  22057281.662   117826157.950        3096.511          37.761  
R20  20129778.344   107642906.091       -1603.782          30.337  
R21  20140408.685   107775397.605        2323.624          34.034  
> 2020  4 16 16 16 40.0003938  0 18
G05  25458329.365                       -3149.982          22.566  
G10  24263068.827   127503391.358        4060.862          33.013  
G13  25053962.403   131659453.379        2285.882          36.413  
G15  24595337.202   129249427.386        2783.893          37.924  
G16  20861817.264   109629563.500         836.744          35.715  
G18  20902884.035   109845375.852       -1449.156          38.696  
G20  21762165.067   114360975.399        2967.817          38.190  
G21  21047741.951   110606648.345        -752.614          36.810  
G26  21113459.156                       -1398.536          23.513  
G27  22450759.263   117979509.735        3279.913          38.404  
G29  23601235.005   124025294.551       -2905.724          34.943  
R04  21768911.596   116571526.024        -606.365          36.347  
R05  21659696.004   115783548.269        3189.738          31.964  
R10  22681826.099   120991981.218       -4009.863          32.328  
R11  20455984.916   109310574.634        -669.747          38.319  
R12  22056805.891   117823542.345        3095.670          38.003  
R20  20130147.389   107644991.090       -1604.228          30.436  
R21  20140087.008   107773555.565        2323.150          33.968  
> 2020  4 16 16 16 41.0003940  0 18
G05  25459011.993                       -3150.265          21.972  
G10  24262349.325   127499645.432        4060.894          32.758  
G13  25053590.960   131657482.608        2285.832          36.190  
G15  24594867.727   129246958.713        2783.767          37.963  
G16  20861722.830   109629042.197         836.147          35.806  
G18  20903212.007   109847140.187       -1449.333          38.670  
G20  21761656.319   114358322.922        2967.307          38.109  
G21  21047941.014   110607716.272        -752.901          36.450  
G26  21113775.737                       -1398.409          22.855  
G27  22450197.752   117976544.856        3279.933          38.601  
G29  23601863.670   124028515.383       -2905.681          35.116  
R04  21769082.778   116572454.044        -607.507          36.147  
R05  21659150.982   115780679.050        3189.552          32.103  
R10  22682634.339   120996310.610       -4009.662          32.300  
R11  20456169.888   109311565.139        -670.434          38.329  
R12  22056278.256   117820767.138        3095.240          38.329  
R20  20130514.035   107646916.208       -1604.632          30.609  
R21  20139708.670   107771553.492        2322.692          34.423  
> 2020  4 16 16 16 42.0003942  0 18
G05  25459649.352                       -3147.931          21.713  
G10  24261634.620   127495899.583        4061.084          32.714  
G13  25053215.920   131655512.461        2285.033          35.423  
G15  24594401.250   129244490.491        2782.937          37.804  
G16  20861623.299   109628521.556         835.591          35.951  
G18  20903549.874   109848904.958       -1449.924          38.453  
G20  21761151.468   114355670.871        2966.800          37.776  
G21  21048152.667   110608784.578        -753.517          36.870  
G26  21114133.989                       -1400.861          22.629  
G27  22449627.246   117973580.231        3279.543          38.571  
G29  23602464.154   124031736.352       -2906.137          34.457  
R04  21769257.557   116573382.988        -608.179          36.083  
R05  21658626.645   115777810.603        3188.636          33.192  
R10  22683450.074   121000640.344       -4010.073          32.109  
R11  20456356.659   109312556.513        -671.352          38.587  
R12  22055763.812   117817992.763        3094.332          38.569  
R20  20130865.092   107648841.699       -1604.977          30.140  
R21  20139332.130   107769551.877        2322.074          34.380  
> 2020  4 16 16 16 43.0003944  0 18
G05  25460324.484                       -3150.447          21.516  
G10  24260936.103   127492153.936        4060.476          33.495  
G13  25052838.781   131653542.744        2284.343          35.057  
G15  24593924.880   129242022.605        2782.643          37.528  
G16  20861527.665   109628001.634         834.793          35.533  
G18  20903890.438   109850670.164       -1450.401          38.496  
G20  21760650.815   114353019.289        2966.438          37.958  
G21  21048353.828   110609853.163        -753.774          36.797  
G26  21114473.054                       -1400.949          23.409  
G27  22449065.435   117970615.831        3279.417          38.727  
G29  23603083.525   124034957.470       -2906.203          34.841  
R04  21769431.436   116574312.914        -609.464          35.823  
R05  21658069.930   115774942.752        3187.932          32.464  
R10  22684257.116   121004970.294       -4010.252          32.349  
R11  20456537.134   109313548.799        -672.270          38.638  
R12  22055241.874   117815219.042        3093.720          39.175  
R20  20131241.332   107650767.628       -1605.375          30.059  
R21  20138952.293   107767550.653        2321.842          34.174  
> 2020  4 16 16 16 44.0003947  0 19
G05  25461005.313                       -3148.314          18.601  
G07  25541862.936                        2328.529          18.663  
G10  24260245.981   127488565.936        4060.430          34.352  
G13  25052488.023   131651731.036        2284.010          34.890  
G15  24593480.887   129239712.689        2782.262          37.488  
G16  20861456.614   109627639.927         834.062          36.231  
G18  20904252.887   109852593.403       -1450.788          38.441  
G20  21760169.348   114350525.797        2965.929          37.849  
G21  21048585.867   110611079.786        -754.166          36.384  
G26  21114800.728                       -1401.684          24.021  
G27  22448529.706   117967809.286        3279.182          38.929  
G29  23603720.884   124038336.351       -2906.245          34.665  
R04  21769645.188   116575404.243        -610.169          35.180  
R05  21657577.971   115772235.928        3187.503          33.260  
R10  22685109.725   121009460.429       -4010.397          32.829  
R11  20456752.385   109314702.226        -673.299          38.991  
R12  22054761.306   117812606.217        3093.007          39.521  
R20  20131622.368   107652854.357       -1605.865          30.199  
R21  20138614.427   107765710.346        2321.233          34.360  
> 2020  4 16 16 16 45.0003949  0 19
G05  25461640.273                       -3149.348          17.943  
G07  25541472.906                        2327.128          17.436  
G10  24259536.372   127484820.565        4060.391          34.222  
G13  25052122.576   131649762.249        2283.644          35.385  
G15  24593017.708   129237245.615        2782.162          38.083  
G16  20861360.681   109627121.407         833.374          36.268  
G18  20904591.952   109854359.546       -1451.230          38.431  
G20  21759666.896   114347875.159        2965.559          37.753  
G21  21048793.923   110612149.197        -754.444          36.841  
G26  21115154.483                       -1401.680          24.053  
G27  22447970.593   117964845.419        3278.864          38.970  
G29  23604335.758   124041557.865       -2906.506          34.198  
R04  21769789.988   116576335.889        -610.858          35.000  
R05  21657040.143   115769369.578        3186.517          32.887  
R10  22685914.068   121013790.920       -4010.581          33.104  
R11  20456937.957   109315696.446        -674.272          38.880  
R12  22054244.764   117809833.879        3092.227          39.590  
R20  20131989.314   107654781.141       -1606.111          30.368  
R21  20138249.580   107763709.986        2321.205          34.188  
> 2020  4 16 16 16 46.0003951  0 19
G05  25462300.416                       -3150.535          20.130  
G07  25541092.769                        2327.697          13.595  
G10  24258825.565   127481075.305        4060.263          33.560  
G13  25051749.934   131647794.119        2282.897          35.411  
G15  24592548.233   129234779.096        2781.381          38.322  
G16  20861259.351   109626603.621         832.430          36.514  
G18  20904925.621   109856126.229       -1451.859          38.455  
G20  21759158.148   114345225.127        2964.789          37.822  
G21  21048991.486   110613219.075        -755.083          36.570  
G26  21115485.454                       -1402.835          23.979  
G27  22447404.585   117961881.928        3278.546          38.887  
G29  23604954.230   124044779.662       -2906.686          34.574  
R04  21769986.052   116577268.620        -612.254          35.472  
R05  21656499.617   115766503.919        3185.613          32.365  
R10  22686727.405   121018121.762       -4011.180          32.774  
R11  20457133.421   109316691.647        -675.435          38.765  
R12  22053715.031   117807062.457        3091.211          39.659  
R20  20132342.170   107656708.490       -1607.038          30.425  
R21  20137863.747   107761710.265        2320.100          34.633  
> 2020  4 16 16 16 47.0003953  0 20
G05  25462968.654                       -3151.432          20.858  
G07  25540707.536                        2325.848          15.396  
G10  24258109.360   127477330.202        4060.074          34.727  
G13  25051370.097   131645826.484        2282.501          36.109  
G15  24592079.658   129232312.967        2780.873          37.835  
G16  20861156.822   109626086.541         831.835          36.182  
G18  20905265.286   109857893.408       -1452.307          38.388  
G20  21758662.891   114342575.585        2964.368          38.156  
G21  21049193.547   110614289.348        -755.461          36.443  
G26  21115799.936   110964215.4631      -1403.200          24.760  
G27  22446836.179   117958918.687        3278.284          38.713  
G29  23605571.203   124048001.690       -2907.335          34.185  
R03  24543283.039                       -3315.944          11.759  
R04  21770161.731   116578202.231        -613.035          35.238  
R05  21655972.582   115763638.924        3185.365          32.764  
R10  22687530.250   121022452.854       -4011.439          32.771  
R11  20457324.089   109317687.791        -676.152          39.027  
R12  22053196.690   117804291.704        3090.785          39.870  
R20  20132688.130   107658636.170       -1607.079          30.101  
R21  20137481.212   107759710.944        2319.891          34.489  
> 2020  4 16 16 16 48.0003955  0 20
G05  25463639.589                       -3146.232          20.087  
G07  25540346.286                        2326.831          17.290  
G10  24257400.651   127473585.291        4059.794          34.336  
G13  25050993.558   131643859.379        2281.939          35.300  
G15  24591616.178   129229847.249        2780.551          38.796  
G16  20861062.687   109625570.195         830.944          36.356  
G18  20905603.752   109859661.073       -1452.750          38.569  
G20  21758156.242   114339926.536        2963.863          38.153  
G21  21049404.301   110615360.032        -755.682          36.435  
G26  21116127.909   110965934.071       -1403.937          24.739  
G27  22446269.871   117955955.800        3277.740          38.765  
G29  23606163.593   124051223.875       -2907.244          33.765  
R03  24543972.262                       -3314.650          10.899  
R04  21770330.514   116579136.795        -613.989          35.573  
R05  21655395.182   115760497.691        3184.732          31.855  
R10  22688351.981   121026784.293       -4011.744          32.870  
R11  20457512.059   109318684.891        -677.060          39.007  
R12  22052681.946   117801521.727        3089.865          39.896  
R20  20133056.275   107660564.418       -1607.876          29.854  
R21  20137110.668   107757712.186        2319.269          34.179  
> 2020  4 16 16 16 49.0003958  0 18
G05  25464311.424                       -3151.105          18.599  
G10  24256719.223   127469998.022        4060.024          34.140  
G13  25050651.195   131642050.382        2281.282          35.195  
G15  24591178.481   129227539.537        2780.241          38.542  
G16  20860993.135   109625212.102         830.657          36.126  
G18  20905972.197   109861586.733       -1453.108          38.686  
G20  21757675.375   114337435.484        2963.491          37.889  
G21  21049635.441   110616588.676        -755.975          36.414  
G26  21116500.551   110967810.792       -1404.079          25.691  
G27  22445739.538   117953150.658        3277.795          38.582  
G29  23606817.740   124054603.795       -2907.166          33.936  
R04  21770540.069   116580232.825        -614.738          34.891  
R05  21654902.023   115757794.433        3184.044          31.943  
R10  22689200.693   121031275.926       -4011.858          33.537  
R11  20457718.916   109319843.104        -677.978          39.055  
R12  22052198.980   117798912.644        3089.382          40.100  
R20  20133445.706   107662653.351       -1608.128          29.618  
R21  20136763.209   107755874.236        2319.052          34.386  
> 2020  4 16 16 16 50.0003960  0 18
G05  25464955.678                       -3151.080          18.850  
G10  24255995.824   127466253.468        4059.533          33.840  
G13  25050274.056   131640084.365        2280.618          35.301  
G15  24590718.900   129225074.775        2779.409          39.189  
G16  20860892.704   109624697.278         829.484          36.111  
G18  20906300.170   109863355.425       -1453.966          38.587  
G20  21757174.422   114334787.475        2962.805          38.247  
G21  21049836.302   110617660.245        -756.750          36.478  
G26  21116811.136   110969530.687       -1405.493          26.183  
G27  22445172.630   117950188.355        3277.137          38.761  
G29  23607427.818   124057826.456       -2907.498          33.164  
R04  21770729.837   116581169.375        -616.140          34.765  
R05  21654360.298   115754931.681        3182.801          30.785  
R10  22690014.930   121035607.987       -4012.568          33.808  
R11  20457901.190   109320842.181        -679.148          38.710  
R12  22051683.037   117796144.119        3088.263          40.579  
R20  20133812.652   107664582.405       -1608.562          29.766  
R21  20136391.466   107753876.315        2318.550          35.154  
> 2020  4 16 16 16 51.0003962  0 18
G05  25465623.616                       -3150.854          18.103  
G10  24255285.915   127462509.107        4059.173          34.121  
G13  25049904.412   131638118.918        2280.054          35.551  
G15  24590247.326   129222610.480        2779.065          39.251  
G16  20860798.869   109624183.182         828.800          35.841  
G18  20906640.734   109865124.624       -1454.412          38.309  
G20  21756672.869   114332140.019        2962.382          38.074  
G21  21050042.559   110618732.288        -757.328          36.325  
G26  21117142.407   110971251.215       -1406.024          26.746  
G27  22444607.821   117947226.412        3276.687          38.715  
G29  23608042.692   124061049.419       -2908.109          33.429  
R04  21770874.937   116582106.884        -617.249          34.069  
R05  21653825.469   115752069.739        3182.012          31.311  
R10  22690829.466   121039940.365       -4012.902          34.056  
R11  20458084.063   109321842.314        -680.434          38.421  
R12  22051167.394   117793376.426        3087.628          40.749  
R20  20134184.994   107666512.034       -1609.033          29.815  
R21  20136027.818   107751878.996        2317.880          34.920  
> 2020  4 16 16 16 52.0003964  0 18
G05  25466277.763                       -3150.308          17.236  
G10  24254570.910   127458764.923        4058.935          33.789  
G13  25049531.470   131636154.034        2279.887          35.875  
G15  24589770.356   129220146.594        2778.926          38.927  
G16  20860702.636   109623669.807         828.186          35.336  
G18  20906976.202   109866894.337       -1454.641          38.246  
G20  21756166.519   114329493.035        2961.939          38.117  
G21  21050237.724   110619804.698        -757.334          36.139  
G26  21117485.969   110972972.340       -1406.097          27.110  
G27  22444048.708   117944264.691        3276.887          39.120  
G29  23608656.367   124064272.572       -2908.169          33.275  
R04  21771059.009   116583045.374        -617.742          33.923  
R05  21653290.039   115749208.422        3181.657          31.052  
R10  22691628.113   121044273.049       -4012.998          34.122  
R11  20458266.637   109322843.347        -680.940          38.305  
R12  22050642.758   117790609.472        3087.057          40.600  
R20  20134541.747   107668442.110       -1609.378          29.894  
R21  20135658.773   107749882.144        2317.593          34.793  
> 2020  4 16 16 16 53.0003967  0 18
G05  25466960.390                       -3150.410          15.010  
G10  24253891.880   127455178.356        4059.329          33.645  
G13  25049192.705   131634347.180        2279.313          36.375  
G15  24589338.355   129217840.731        2778.333          39.211  
G16  20860628.587   109623314.740         827.339          35.368  
G18  20907335.053   109868822.130       -1455.262          37.983  
G20  21755690.449   114327004.110        2961.333          37.951  
G21  21050479.956   110621035.101        -757.833          36.109  
G26  21117826.233   110974851.705       -1406.988          26.849  
G27  22443511.780   117941460.863        3276.314          39.439  
G29  23609291.028   124067653.454       -2908.425          32.805  
R04  21771250.877   116584145.307        -618.935          33.286  
R05  21652806.774   115746508.192        3180.737          31.993  
R10  22692487.618   121048765.933       -4013.323          33.538  
R11  20458493.580   109324005.523        -681.859          38.212  
R12  22050149.299   117788003.453        3086.261          40.611  
R20  20134929.678   107670532.961       -1610.037          29.854  
R21  20135295.425   107748046.264        2317.084          33.974  
> 2020  4 16 16 16 54.0003969  0 18
G05  25467614.537                       -3150.630          15.522  
G10  24253164.584   127451434.385        4059.223          33.468  
G13  25048817.065   131632383.155        2278.987          36.382  
G15  24588861.385   129215377.647        2777.928          38.808  
G16  20860527.257   109622802.708         826.783          34.833  
G18  20907672.919   109870592.677       -1455.675          38.006  
G20  21755191.894   114324358.037        2960.974          37.980  
G21  21050675.720   110622108.219        -758.052          35.799  
G26  21118180.888   110976573.939       -1407.282          26.571  
G27  22442951.168   117938499.657        3276.097          39.762  
G29  23609907.701   124070876.858       -2908.250          32.214  
R04  21771429.553   116585085.502        -619.593          33.029  
R05  21652265.648   115743648.275        3180.114          32.964  
R10  22693295.259   121053099.102       -4013.539          34.193  
R11  20458683.048   109325008.363        -682.862          38.136  
R12  22049630.958   117785237.899        3085.555          40.424  
R20  20135284.633   107672463.852       -1610.478          29.601  
R21  20134918.586   107746050.270        2316.707          33.789  
> 2020  4 16 16 16 55.0003971  0 17
G10  24252455.574   127447690.469        4059.151          33.666  
G13  25048452.217   131630419.724        2278.441          36.248  
G15  24588394.009   129212914.983        2777.707          38.995  
G16  20860430.125   109622291.373         826.366          34.988  
G18  20908016.182   109872363.718       -1456.036          38.224  
G20  21754684.945   114321712.436        2960.589          38.002  
G21  21050876.881   110623181.788        -758.565          35.593  
G26  21118503.764   110978296.910       -1407.650          25.879  
G27  22442384.560   117935538.711        3276.057          39.596  
G29  23610518.378   124074100.496       -2908.277          31.294  
R04  21771591.141   116586026.734        -620.304          33.184  
R05  21651746.708   115740789.058        3179.291          32.638  
R10  22694105.897   121057432.502       -4013.232          34.359  
R11  20458871.018   109326012.125        -683.601          38.083  
R12  22049116.814   117782473.032        3084.976          40.560  
R20  20135646.782   107674395.184       -1610.573          29.648  
R21  20134548.942   107744054.695        2316.573          33.578  
> 2020  4 16 16 16 56.0003973  0 18
G10  24251750.762   127443946.688        4058.780          34.350  
G13  25048070.582   131628456.743        2277.739          36.651  
G15  24587931.729   129210452.665        2777.243          39.307  
G16  20860341.986   109621780.700         825.377          35.153  
G18  20908343.855   109874135.218       -1456.578          37.893  
G20  21754180.694   114319067.326        2959.787          37.725  
G21  21051084.038   110624255.681        -758.956          35.092  
G26  21118810.452   110980020.408       -1408.917          25.286  
G27  22441824.248   117932578.024        3275.617          39.283  
G29  23611135.651   124077324.341       -2909.163          30.911  
R03  24549418.891                       -3315.944          17.157  
R04  21771777.912   116586968.789        -621.462          32.925  
R05  21651207.081   115737930.468        3178.737          31.829  
R10  22694909.341   121061766.166       -4013.791          34.441  
R11  20459055.690   109327016.850        -684.698          37.935  
R12  22048598.173   117779708.840        3084.171          40.745  
R20  20136028.717   107676326.918       -1611.482          29.663  
R21  20134179.298   107742059.529        2315.695          33.748  
> 2020  4 16 16 16 57.0003975  0 18
G10  24251040.254   127440203.103        4058.590          34.526  
G13  25047703.036   131626494.236        2277.448          36.864  
G15  24587465.552   129207990.826        2776.752          39.279  
G16  20860246.652   109621270.783         824.798          35.476  
G18  20908682.021   109875907.214       -1457.242          37.745  
G20  21753677.343   114316422.641        2959.698          37.785  
G21  21051286.697   110625330.020        -759.313          34.976  
G26  21119154.913   110981744.508       -1409.533          25.089  
G27  22441260.039   117929617.604        3275.452          39.405  
G29  23611752.024   124080548.334       -2908.940          30.292  
R03  24550106.615                       -3319.176          11.825  
R04  21771954.490   116587911.840        -622.587          33.495  
R05  21650666.855   115735072.626        3178.185          32.766  
R10  22695722.079   121066100.157       -4014.038          34.146  
R11  20459249.356   109328022.471        -685.554          37.830  
R12  22048076.534   117776945.434        3083.369          40.826  
R20  20136358.789   107678259.116       -1611.913          29.624  
R21  20133820.446   107740064.866        2315.475          34.060  
> 2020  4 16 16 16 58.0003978  0 18
G10  24250359.126   127436617.070        4058.730          34.205  
G13  25047351.679   131624689.772        2277.152          36.155  
G15  24587022.159   129205686.842        2776.591          39.202  
G16  20860170.504   109620919.012         824.383          34.853  
G18  20909048.067   109877837.067       -1457.067          37.742  
G20  21753203.071   114313935.958        2959.218          37.422  
G21  21051516.938   110626562.180        -759.419          34.485  
G26  21119517.662   110983626.690       -1409.628          25.565  
G27  22440727.907   117926814.966        3275.366          39.636  
G29  23612386.985   124083929.938       -2908.817          30.030  
R03  24550856.396                       -3320.367          12.309  
R04  21772158.648   116589016.227        -622.925          33.647  
R05  21650173.697   115732375.614        3177.815          32.352  
R10  22696570.491   121070594.258       -4014.129          34.059  
R11  20459452.316   109329189.172        -686.461          37.170  
R12  22047595.367   117774342.845        3082.938          40.654  
R20  20136762.310   107680351.932       -1612.223          29.660  
R21  20133475.085   107738231.063        2315.140          33.803  
